[{"location":"Avalon Hotel Beverly Hills","address":"9400 W. Olympic Blvd. Beverly Hills, ","formattedAddress":"9400 W Olympic Blvd, Beverly Hills, CA 90212, USA","lat":34.0589051,"lng":-118.3973556,"zipcode":"90212","city":"Beverly Hills"},{"location":"The Spirit Guild","address":"586 Mateo St Los Angeles, ","formattedAddress":"586 Mateo St, Los Angeles, CA 90013, USA","lat":34.0389068,"lng":-118.2325467,"zipcode":"90013","city":"Los Angeles","neighborhood":"Downtown"},{"location":"Copro Gallery","address":"2525 Michigan Ave., T5 Santa Monica, ","formattedAddress":"2525 Michigan Ave, Santa Monica, CA 90405, USA","lat":34.02778929999999,"lng":-118.4684355,"zipcode":"90405","city":"Santa Monica","neighborhood":"Pico"},{"location":"IMAX THEATER, CALIFORNIA SCIENCE CENTER","address":"700 Exposition Los Angeles, ","formattedAddress":"700 Exposition Blvd, Los Angeles, CA 90037, USA","lat":34.0181226,"lng":-118.2869634,"zipcode":"90037","city":"Los Angeles","neighborhood":"South Los Angeles"},{"location":"Pacific Amphitheatre","address":"100 Fair Dr. Costa Mesa, ","formattedAddress":"100 Fair Dr, Costa Mesa, CA 92626, USA","lat":33.6658039,"lng":-117.9047929,"zipcode":"92626","city":"Costa Mesa"},{"location":"The Standard Downtown","address":"550 S. Flower St. Los Angeles, ","formattedAddress":"550 S Flower St, Los Angeles, CA 90071, USA","lat":34.0501654,"lng":-118.2569631,"zipcode":"90071","city":"Los Angeles","neighborhood":"Central LA"},{"location":"The Bloc LA","address":"700 S. Flower St. Los Angeles, ","formattedAddress":"700 S Flower St, Los Angeles, CA 90017, USA","lat":34.0482805,"lng":-118.2589431,"zipcode":"90017","city":"Los Angeles","neighborhood":"Central LA"},{"location":"Embassy Suites","address":"800 N. Central Ave. Glendale, California 91203 949-438-3550","formattedAddress":"800 N Central Ave, Glendale, CA 91203, USA","lat":34.1577648,"lng":-118.2574216,"zipcode":"91203","city":"Glendale","neighborhood":"Downtown"},{"location":"Levitt Pavilion Pasadena","address":"85 E. Holly St. Pasadena, ","formattedAddress":"85 E Holly St, Pasadena, CA 91103, USA","lat":34.1478774,"lng":-118.1486,"zipcode":"91103","city":"Pasadena"},{"location":"Burton W. Chace Park","address":"13650 Mindanao Way Marina del Rey, ","formattedAddress":"13650 Mindanao Way, Marina Del Rey, CA 90292, USA","lat":33.9773354,"lng":-118.4449661,"zipcode":"90292","city":"Marina del Rey"},{"location":"Culver City City Hall Courtyard","address":"9770 Culver Blvd. Culver City, ","formattedAddress":"9770 Culver Blvd, Culver City, CA 90232, USA","lat":34.0213325,"lng":-118.3955343,"zipcode":"90232","city":"Culver City","neighborhood":"Lucerne - Higuera"},{"location":"Redondo Beach Pier","address":"100 Fisherman's Wharf Redondo Beach, ","formattedAddress":"100 Fishermans Wharf, Redondo Beach, CA 90277, USA","lat":33.8390803,"lng":-118.3909962,"zipcode":"90277","city":"Redondo Beach","neighborhood":"South Redondo"},{"location":"Norris Theatre","address":"27570 Norris Center Dr. Rolling Hills Estates, California 90274 310-544-0403","formattedAddress":"27570 Norris Center Dr, Rolling Hills Estates, CA 90274, USA","lat":33.7722142,"lng":-118.3755603,"zipcode":"90274","city":"Rolling Hills Estates"},{"location":"UCLA, Powell Library Building","address":"405 Hilgard Ave. Westwood, ","formattedAddress":"405 Hilgard Ave, Los Angeles, CA 90024, USA","lat":34.0725988,"lng":-118.439277,"zipcode":"90024","city":"Los Angeles","neighborhood":"Westwood"},{"location":"JoAnne Artman Gallery","address":"326 N. Coast Highway Laguna Beach, ","formattedAddress":"326 N Coast Hwy, Laguna Beach, CA 92651, USA","lat":33.5442691,"lng":-117.7888313,"zipcode":"92651","city":"Laguna Beach"},{"location":"Levitt Pavilion at MacArthur Park","address":"2230 W. Sixth St. Los Angeles, ","formattedAddress":"2230 W 6th St, Los Angeles, CA 90057, USA","lat":34.060205,"lng":-118.2770517,"zipcode":"90057","city":"Los Angeles","neighborhood":"Central LA"},{"location":"Huntington Beach Library Theater","address":"7111 Talbert Ave. Huntington Beach, ","formattedAddress":"7111 Talbert Ave, Huntington Beach, CA 92648, USA","lat":33.7018176,"lng":-118.0045577,"zipcode":"92648","city":"Huntington Beach"},{"location":"Seventy7 North","address":"12514 Ventura Blvd. Studio City, ","formattedAddress":"12514 Ventura Blvd, Studio City, CA 91604, USA","lat":34.1425426,"lng":-118.4058007,"zipcode":"91604","city":"Los Angeles","neighborhood":"Studio City"},{"location":"Mothers Beach","address":"5825 E. Appian Way Long Beach, ","formattedAddress":"5825 Appian Way, Long Beach, CA 90803, USA","lat":33.7574942,"lng":-118.120274,"zipcode":"90803","city":"Long Beach","neighborhood":"Naples"},{"location":"Square Mixx","address":"450 S Western Ave. Los Angeles, ","formattedAddress":"450 S Western Ave, Los Angeles, CA 90020, USA","lat":34.0657724,"lng":-118.3085041,"zipcode":"90020","city":"Los Angeles","neighborhood":"Koreatown"},{"location":"Salt & Straw","address":"8949 Santa Monica Blvd. West Hollywood, ","formattedAddress":"8949 Santa Monica Blvd, West Hollywood, CA 90069, USA","lat":34.0841873,"lng":-118.3856006,"zipcode":"90069","city":"West Hollywood","neighborhood":"Norma Triangle"},{"location":"Harbor Shelter","address":"957 Gaffey St. San Pedro, ","formattedAddress":"957 N Gaffey St, San Pedro, CA 90731, USA","lat":33.7520469,"lng":-118.2941874,"zipcode":"90731","city":"Los Angeles","neighborhood":"San Pedro"},{"location":"North Central Shelter","address":"3201 Lacy St. Los Angeles, ","formattedAddress":"3201 Lacy St, Los Angeles, CA 90031, USA","lat":34.0835578,"lng":-118.2188244,"zipcode":"90031","city":"Los Angeles","neighborhood":"Northeast Los Angeles"},{"location":"East Valley Shelter","address":"14409 Vanowen St. Van Nuys, ","formattedAddress":"14409 Vanowen St, Van Nuys, CA 91405, USA","lat":34.1944355,"lng":-118.4460674,"zipcode":"91405","city":"Los Angeles","neighborhood":"Van Nuys"},{"location":"South L.A. Shelter","address":"1850 W. 60th St. Los Angeles, ","formattedAddress":"1850 W 60th St, Los Angeles, CA 90047, USA","lat":33.9848206,"lng":-118.3109249,"zipcode":"90047","city":"Los Angeles","neighborhood":"South Los Angeles"},{"location":"Alpine Village","address":"833 W. Torrance Blvd. Torrance, ","formattedAddress":"833 W Torrance Blvd, Torrance, CA 90502, USA","lat":33.842363,"lng":-118.2875537,"zipcode":"90502","city":"Torrance"},{"location":"Edye Second Space","address":"1310 11th St. Santa Monica, ","formattedAddress":"1310 11th St, Santa Monica, CA 90401, USA","lat":34.022176,"lng":-118.4898567,"zipcode":"90401","city":"Santa Monica","neighborhood":"Downtown"},{"location":"The Ford Theatres","address":"2580 Cahuenga Blvd. East Hollywood, California 90068 323-461-3673","formattedAddress":"2580 Cahuenga Blvd E, Los Angeles, CA 90068, USA","lat":34.1167804,"lng":-118.3366578,"zipcode":"90068","city":"Los Angeles","neighborhood":"Central LA"},{"location":"Echo Park Film Center","address":"1200 N. Alvarado St. Los Angeles, ","formattedAddress":"1200 N Alvarado St, Los Angeles, CA 90026, USA","lat":34.078137,"lng":-118.262864,"zipcode":"90026","city":"Los Angeles","neighborhood":"Echo Park"},{"location":"Metropolis","address":"603 Arizona Ave Santa Monica, ","formattedAddress":"603 Arizona Ave, Santa Monica, CA 90401, USA","lat":34.0195588,"lng":-118.4948614,"zipcode":"90401","city":"Santa Monica","neighborhood":"Downtown"},{"location":"Lincoln Park","address":"3501 Valley Blvd. Los Angeles, ","formattedAddress":"3501 Valley Blvd, Los Angeles, CA 90031, USA","lat":34.0658872,"lng":-118.1991957,"zipcode":"90031","city":"Los Angeles","neighborhood":"Northeast Los Angeles"},{"location":"Downtown Santa Ana","address":"E. Fourth St. & French St. Santa Ana, "},{"location":"Glen Helen Amphitheater","address":"2575 Glen Helen Parkway San Bernardino, ","formattedAddress":"2575 Glen Helen Pkwy, San Bernardino, CA 92407, USA","lat":34.2108779,"lng":-117.4069989,"zipcode":"92407","city":"San Bernardino"},{"location":"Chinatown Central Plaza","address":"727 N. Broadway Los Angeles, ","formattedAddress":"727 N Broadway, Los Angeles, CA 90012, USA","lat":34.0613125,"lng":-118.2395806,"zipcode":"90012","city":"Los Angeles","neighborhood":"Central LA"},{"location":"The Park Bar & Grill","address":"2007 W. Burbank Blvd. Burbank, ","formattedAddress":"2007 W Burbank Blvd, Burbank, CA 91506, USA","lat":34.1807034,"lng":-118.3329771,"zipcode":"91506","city":"Burbank"},{"location":"Eastern Projects Gallery","address":"900 N. Broadway Suite 1090 Los Angeles, California 90012 323-327-8020","formattedAddress":"900 N Broadway #1090, Los Angeles, CA 90012, USA","lat":34.064254,"lng":-118.236637,"zipcode":"90012","city":"Los Angeles","neighborhood":"Central LA"},{"location":"Burbank Airport Marriott Hotel & Convention Center","address":"2500 Hollywood Way Burbank, ","formattedAddress":"2500 N Hollywood Way, Burbank, CA 91505, USA","lat":34.19396,"lng":-118.3482651,"zipcode":"91505","city":"Burbank","neighborhood":"North Hollywood"},{"location":"Pasadena Heritage","address":"651 S. St. John Ave. Pasadena, ","formattedAddress":"651 S St John Ave, Pasadena, CA 91105, USA","lat":34.13452,"lng":-118.1559461,"zipcode":"91105","city":"Pasadena","neighborhood":"Northeast Los Angeles"},{"location":"Museum of Latin American Art (MOLAA)","address":"628 Alamitos Ave. Long Beach, ","formattedAddress":"628 Alamitos Ave, Long Beach, CA 90802, USA","lat":33.7744158,"lng":-118.1798784,"zipcode":"90802","city":"Long Beach","neighborhood":"Eastside"},{"location":"Beverly Hills Certified Farmers Market","address":"9300 Civic Center Dr. Beverly Hills, ","formattedAddress":"9300 Civic Center Dr, Beverly Hills, CA 90210, USA","lat":34.0736573,"lng":-118.3991009,"zipcode":"90210","city":"Beverly Hills"},{"location":"the Sepulveda Recreation Basin","address":"16212 Burbank Blvd Encino, ","formattedAddress":"16212 Burbank Blvd, Encino, CA 91436, USA","lat":34.1703579,"lng":-118.4785154,"zipcode":"91436","city":"Los Angeles","neighborhood":"Encino"},{"location":"The Autry Museum of the American West","address":"4700 Western Heritage Way Griffith Park, Los Angeles, ","formattedAddress":"4700 Western Heritage Way, - Griffith Park, Los Angeles, CA 90027, United States","lat":34.14862,"lng":-118.281213,"zipcode":"90027","city":"Los Angeles"},{"location":"Surf Dog's Sports Grill","address":"5932 Warner Ave. Huntington Beach, ","formattedAddress":"5932 Warner Ave, Huntington Beach, CA 92649, USA","lat":33.7144143,"lng":-118.0250751,"zipcode":"92649","city":"Huntington Beach"},{"location":"Eagle Rock Recreation Center","address":"1100 Eagle Vista Dr. Eagle Rock, California 90041 323-254-5068","formattedAddress":"1100 Eagle Vista Dr, Los Angeles, CA 90041, USA","lat":34.1426646,"lng":-118.1891838,"zipcode":"90041","city":"Los Angeles","neighborhood":"Northeast Los Angeles"},{"location":"Veterans Auditorium Culver City","address":"4117 Overland Ave. Culver City, ca 90230 310-253-6620","formattedAddress":"4117 Overland Ave, Culver City, CA 90230, USA","lat":34.012953,"lng":-118.4026083,"zipcode":"90230","city":"Culver City","neighborhood":"Park West"},{"location":"Griffith Park Merry-Go-Round","address":"4730 Crystal Springs Drive Los Angeles, California 90027 213-913-4688","formattedAddress":"4730 Crystal Springs Dr, Los Angeles, CA 90027, USA","lat":34.1425659,"lng":-118.2861657,"zipcode":"90027","city":"Los Angeles"},{"location":"Skinny's Lounge","address":"4923 Lankershim Blvd. North Hollywood, ","formattedAddress":"4923 Lankershim Blvd, North Hollywood, CA 91601, USA","lat":34.1604101,"lng":-118.3722368,"zipcode":"91601","city":"Los Angeles","neighborhood":"North Hollywood"},{"location":"Atwater Village Theatre","address":"3269 Casitas Ave. Los Angeles, ","formattedAddress":"3269 Casitas Ave, Los Angeles, CA 90039, USA","lat":34.1164165,"lng":-118.2518773,"zipcode":"90039","city":"Los Angeles","neighborhood":"Northeast Los Angeles"},{"location":"Redondo Beach Performing Arts Center","address":"1935 Manhattan Beach Blvd. Redondo Beach, ","formattedAddress":"1935 Manhattan Beach Blvd, Redondo Beach, CA 90278, USA","lat":33.8881899,"lng":-118.3773458,"zipcode":"90278","city":"Redondo Beach","neighborhood":"North Redondo"},{"location":"Zinc Lounge","address":"1221 N. Valley Dr. Manhattan Beach, ","formattedAddress":"1221 N Valley Dr, Manhattan Beach, CA 90266, USA","lat":33.8867436,"lng":-118.4088723,"zipcode":"90266","city":"Manhattan Beach"},{"location":"Dance Garden L.A.","address":"3407 Glendale Blvd. Los Angeles, ","formattedAddress":"3407 Glendale Blvd, Los Angeles, CA 90039, USA","lat":34.1204689,"lng":-118.2586568,"zipcode":"90039","city":"Los Angeles","neighborhood":"Northeast Los Angeles"},{"location":"Saint Ambrose Church","address":"830 W. Bonita Ave. Claremont, California 91711 909-626-7170","formattedAddress":"830 W Bonita Ave, Claremont, CA 91711, USA","lat":34.0961813,"lng":-117.7295186,"zipcode":"91711","city":"Claremont"},{"location":"SouthBay Pavilion Mall","address":"20700 Avalon Blvd. Carson, California 90746 310-366-6629","formattedAddress":"20700 S Avalon Blvd, Carson, CA 90746, USA","lat":33.8439058,"lng":-118.2609355,"zipcode":"90746","city":"Carson"},{"location":"WeVillage","address":"13335 Ventura Blvd. Sherman Oaks, ","formattedAddress":"13335 Ventura Blvd, Sherman Oaks, CA 91423, USA","lat":34.1470662,"lng":-118.4237509,"zipcode":"91423","city":"Los Angeles","neighborhood":"Sherman Oaks"},{"location":"Sarika James","address":"Beijing,China China, Beijing 100000 302-231-6756","formattedAddress":"Bei Jing You Dian Da Xue Xue Sheng Hui, BeiTaiPingZhuang, Haidian Qu, Beijing Shi, China, 100088","lat":39.9641081,"lng":116.3573675,"zipcode":"100088","neighborhood":"BeiTaiPingZhuang"},{"location":"Ramen Bangaichi","address":"4339 W. Sunset Blvd. Los Angeles, CA 323-522-6578","formattedAddress":"4339 Sunset Blvd, Los Angeles, CA 90029, USA","lat":34.0952644,"lng":-118.2829531,"zipcode":"90029","city":"Los Angeles","neighborhood":"Los Feliz"},{"location":"Whitefire Theater","address":"13500 Ventura Blvd. Sherman Oaks, ","formattedAddress":"13500 Ventura Blvd, Sherman Oaks, CA 91423, USA","lat":34.1471717,"lng":-118.4273501,"zipcode":"91423","city":"Los Angeles","neighborhood":"Sherman Oaks"},{"location":"Stoner Recreation Center","address":"1835 Stoner Ave. Los Angeles, ","formattedAddress":"1835 Stoner Ave, Los Angeles, CA 90025, USA","lat":34.0384978,"lng":-118.453568,"zipcode":"90025","city":"Los Angeles","neighborhood":"Sawtelle"},{"location":"Girls Who Code","address":"Los Angeles Los Angeles, California 90001 646-629-9735","formattedAddress":"629 S Los Angeles St, Los Angeles, CA 90014, USA","lat":34.0440653,"lng":-118.2498969,"zipcode":"90014","city":"Los Angeles","neighborhood":"Central LA"},{"location":"Scottish Rite Cathedral","address":"150 N. Madison Ave. Pasadena, ","formattedAddress":"150 N Madison Ave, Pasadena, CA 91101, USA","lat":34.148613,"lng":-118.1379448,"zipcode":"91101","city":"Pasadena"},{"location":"Velvet Jones","address":"423 State St. Santa Barbara, ","formattedAddress":"423 State St, Santa Barbara, CA 93101, USA","lat":34.4162232,"lng":-119.6951723,"zipcode":"93101","city":"Santa Barbara","neighborhood":"Lower State"},{"location":"Pasadena Playhouse","address":"39 S. El Molino Ave. Pasadena, ","formattedAddress":"39 S El Molino Ave, Pasadena, CA 91101, USA","lat":34.1451149,"lng":-118.137375,"zipcode":"91101","city":"Pasadena"},{"location":"National Center for the Preservation of Democracy","address":"111 N. Central Ave. Los Angeles, ","formattedAddress":"111 N Central Ave, Los Angeles, CA 90012, USA","lat":34.0493059,"lng":-118.2391265,"zipcode":"90012","city":"Los Angeles","neighborhood":"Central LA"},{"location":"Urban Press Winery","address":"316 N. San Fernando Blvd. Burbank, ","formattedAddress":"316 N San Fernando Blvd, Burbank, CA 91502, USA","lat":34.1826608,"lng":-118.3111691,"zipcode":"91502","city":"Burbank"},{"location":"Comedy Central Stage at The Hudson","address":"6539 Santa Monica Blvd. Los Angeles, ","formattedAddress":"6539 Santa Monica Blvd, Los Angeles, CA 90038, USA","lat":34.0909327,"lng":-118.3322547,"zipcode":"90038","city":"Los Angeles","neighborhood":"Hollywood"},{"location":"Nuart Theatre","address":"11272 Santa Monica Blvd. Los Angeles, ","formattedAddress":"11272 Santa Monica Blvd, Los Angeles, CA 90025, USA","lat":34.046628,"lng":-118.447949,"zipcode":"90025","city":"Los Angeles","neighborhood":"Sawtelle"},{"location":"Venice Voice Academy","address":"40, 30th ave Venice, California 90291 818-984-4895","formattedAddress":"40 30th Ave, Venice, CA 90291, USA","lat":33.9800536,"lng":-118.4660693,"zipcode":"90291","city":"Los Angeles","neighborhood":"Venice"},{"location":"Vista Theatre","address":"4473 Sunset Blvd. Los Angeles, ","formattedAddress":"4473 Sunset Blvd, Los Angeles, CA 90027, USA","lat":34.0976751,"lng":-118.2863715,"zipcode":"90027","city":"Los Angeles","neighborhood":"Los Feliz"},{"location":"Pomona Fairplex","address":"1101 W. McKinley Ave. Pomona, ","formattedAddress":"1101 W McKinley Ave, Pomona, CA 91768, USA","lat":34.0809612,"lng":-117.7651993,"zipcode":"91768","city":"Pomona","neighborhood":"Westmont"},{"location":"Starlight Bowl","address":"1249 Lockheed View Dr. Burbank, ","formattedAddress":"1249 Lockheed View Dr, Burbank, CA 91501, USA","lat":34.206325,"lng":-118.3101015,"zipcode":"91501","city":"Burbank"},{"location":"San Bernardino County Fairgrounds","address":"14800 Seventh St. Victorville, ","formattedAddress":"14800 7th St, Victorville, CA 92395, USA","lat":34.5217189,"lng":-117.3113115,"zipcode":"92395","city":"Victorville"},{"location":"Corriganville Park, , ,","address":"7001 Smith Rd. Simi Valley, California 93063 818-324-6802","formattedAddress":"7001 Smith Rd, Simi Valley, CA 93063, USA","lat":34.2634177,"lng":-118.6546326,"zipcode":"93063","city":"Simi Valley"},{"location":"Blum & Poe","address":"2727 S. La Cienega Blvd. Los Angeles, ","formattedAddress":"2727 S La Cienega Blvd, Los Angeles, CA 90034, USA","lat":34.0329437,"lng":-118.3756535,"zipcode":"90034","city":"Los Angeles","neighborhood":"Art District"},{"location":"Hollywood Lutheran Church","address":"1733 N. New Hampshire Ave. Los Angeles, ","formattedAddress":"1733 N New Hampshire Ave, Los Angeles, CA 90027, USA","lat":34.102841,"lng":-118.2936174,"zipcode":"90027","city":"Los Angeles","neighborhood":"Central LA"},{"location":"Knott's Berry Farm","address":"8039 Beach Blvd. Buena Park, ","formattedAddress":"8039 Beach Blvd, Buena Park, CA 90620, USA","lat":33.843854,"lng":-118.0001748,"zipcode":"90620","city":"Buena Park"},{"location":"Laemmle's Royal Theatre","address":"11523 Santa Monica Blvd. Los Angeles, ","formattedAddress":"11523 Santa Monica Blvd, Los Angeles, CA 90025, USA","lat":34.0452416,"lng":-118.4526707,"zipcode":"90025","city":"Los Angeles","neighborhood":"Sawtelle"},{"location":"Figueroa at Wilshire","address":"601 S. Figueroa St. Los Angeles, ","formattedAddress":"Figueroa at Wilshire, 601 S Figueroa St, Los Angeles, CA 90017, USA","lat":34.0508105,"lng":-118.2592862,"zipcode":"90017","city":"Los Angeles","neighborhood":"Central LA"},{"location":"Unplug Meditation","address":"12401 Wilshire Blvd Los Angeles, ","formattedAddress":"12401 Wilshire Blvd, Los Angeles, CA 90025, USA","lat":34.0418857,"lng":-118.4707829,"zipcode":"90025","city":"Los Angeles","neighborhood":"West Los Angeles"},{"location":"Colony Theatre","address":"555 N. Third St. Burbank, ","formattedAddress":"555 N 3rd St, Burbank, CA 91502, USA","lat":34.185223,"lng":-118.312228,"zipcode":"91502","city":"Burbank"},{"location":"Beach Coders Academy","address":"615 N. Nash St. El Segundo, ","formattedAddress":"615 N Nash St, El Segundo, CA 90245, USA","lat":33.92535040000001,"lng":-118.3881438,"zipcode":"90245","city":"El Segundo"},{"location":"Cerritos Center for the Performing Arts","address":"12700 Center Court Dr. Cerritos, ","formattedAddress":"12700 Center Ct Dr N, Cerritos, CA 90703, USA","lat":33.867418,"lng":-118.0615344,"zipcode":"90703","city":"Cerritos"},{"location":"Ruskin Group Theatre","address":"3000 Airport Ave. Santa Monica, ","formattedAddress":"3000 Airport Ave, Santa Monica, CA 90405, USA","lat":34.0134461,"lng":-118.4497944,"zipcode":"90405","city":"Santa Monica"},{"location":"The Wattles Mansion and Gardens","address":"1824 N. Curson Ave. Los Angeles, ","formattedAddress":"1824 N Curson Ave, Los Angeles, CA 90046, USA","lat":34.104295,"lng":-118.3546834,"zipcode":"90046","city":"Los Angeles","neighborhood":"Central LA"},{"location":"Saban Community Clinic's The Wallis Annenberg Children & Family Health Center","address":"5205 Melrose Ave. Los Angeles, California 90038 323-653-1990","formattedAddress":"5205 Melrose Ave, Los Angeles, CA 90038, USA","lat":34.0837911,"lng":-118.3140387,"zipcode":"90038","city":"Los Angeles","neighborhood":"Central LA"},{"location":"Santa Barbara Bowl","address":"1122 N. Milpas St. Santa Barbara, ","formattedAddress":"1122 N Milpas St, Santa Barbara, CA 93103, USA","lat":34.4326564,"lng":-119.6938129,"zipcode":"93103","city":"Santa Barbara","neighborhood":"Lower Riviera"},{"location":"La Plaza de Culturas Y Artes","address":"501 N. Main St. Los Angeles, California 90012 213-542-6200","formattedAddress":"501 N Main St, Los Angeles, CA 90012, USA","lat":34.0564554,"lng":-118.2398448,"zipcode":"90012","city":"Los Angeles","neighborhood":"Central LA"},{"location":"The Riviera Country Club","address":"1250 Capri Pacific Palisades, ","formattedAddress":"1250 Capri Dr, Pacific Palisades, CA 90272, USA","lat":34.0497944,"lng":-118.5013378,"zipcode":"90272","city":"Los Angeles","neighborhood":"Pacific Palisades"},{"location":"John Anson Ford Amphitheatre","address":"2580 Cahuenga Blvd. East Hollywood, ","formattedAddress":"2580 Cahuenga Blvd E, Los Angeles, CA 90068, USA","lat":34.1140558,"lng":-118.3343777,"zipcode":"90068","city":"Los Angeles","neighborhood":"Central LA"},{"location":"Plaza Park","address":"673 E Santa Clara St Ventura, ","formattedAddress":"673 E Santa Clara St, Ventura, CA 93001, USA","lat":34.2795408,"lng":-119.2903021,"zipcode":"93001","city":"Ventura","neighborhood":"Downtown Ventura"},{"location":"ComedySportz","address":"733 Seward St. Los Angeles, ","formattedAddress":"733 Seward St, Los Angeles, CA 90038, USA","lat":34.0844523,"lng":-118.3333625,"zipcode":"90038","city":"Los Angeles","neighborhood":"Central LA"},{"location":"Las Perlas","address":"107 E. Sixth St. Los Angeles, ","formattedAddress":"107 E 6th St, Los Angeles, CA 90014, USA","lat":34.0450811,"lng":-118.2495339,"zipcode":"90014","city":"Los Angeles","neighborhood":"Downtown"},{"location":"Joxer Daly's","address":"11168 Washington Blvd. Culver City, ","formattedAddress":"11168 Washington Blvd, Culver City, CA 90232, USA","lat":34.0077893,"lng":-118.4123399,"zipcode":"90232","city":"Culver City","neighborhood":"Clarkdale"},{"location":"Timothy Maher","address":"10715 Missouri Ave Apt 305 Los Angeles, ","formattedAddress":"10715 Missouri Ave #305, Los Angeles, CA 90025, USA","lat":34.0506055,"lng":-118.4317085,"zipcode":"90025","city":"Los Angeles","neighborhood":"West Los Angeles"},{"location":"PUBLIC Bikes Santa Monica","address":"2714 Main St. Santa Monica, California 90405 424-221-5209","formattedAddress":"2714 Main St, Santa Monica, CA 90405, USA","lat":34.0004663,"lng":-118.482453,"zipcode":"90405","city":"Santa Monica","neighborhood":"Ocean Park"},{"location":"Gold Diggers","address":"5632 Santa Monica Blvd. Los Angeles, ","formattedAddress":"5632 Santa Monica Blvd, Los Angeles, CA 90038, USA","lat":34.09058720000001,"lng":-118.31256,"zipcode":"90038","city":"Los Angeles","neighborhood":"Hollywood"},{"location":"Gallery 800","address":"5108 Lankershim Blvd. North Hollywood, ","formattedAddress":"5108 Lankershim Blvd, North Hollywood, CA 91601, USA","lat":34.1632645,"lng":-118.3732982,"zipcode":"91601","city":"Los Angeles","neighborhood":"North Hollywood"},{"location":"Retro Row / 4th Street","address":"4th Street between Hermosa and Temple Long Beach, ","formattedAddress":"2805 E 4th St, Long Beach, CA 90814, USA","lat":33.7720957,"lng":-118.1587752,"zipcode":"90814","city":"Long Beach","neighborhood":"Rose Park South"},{"location":"Wrigley Plaza Stage","address":"Crescent Ave. Avalon, ","formattedAddress":"Crescent Ave, Avalon, CA 90704, USA","lat":33.3440707,"lng":-118.325947,"zipcode":"90704","city":"Avalon"},{"location":"El Condor","address":"3701 Sunset Blvd. Los Angeles, ","formattedAddress":"3701 Sunset Blvd, Los Angeles, CA 90026, USA","lat":34.0908123,"lng":-118.2777042,"zipcode":"90026","city":"Los Angeles","neighborhood":"Silver Lake"},{"location":"Shape Up LA","address":"19564 Ventura Blvd Tarzana, ","formattedAddress":"19564 Ventura Blvd, Tarzana, CA 91356, USA","lat":34.1727814,"lng":-118.5593711,"zipcode":"91356","city":"Los Angeles","neighborhood":"Tarzana"},{"location":"Regina joseph","address":"Thon Hotel Bristol Stephanie Avenue Louise 93, 1000 Bruxelles, Belgium Brussels, Belgium, Belgium 1120 800-216-6499","formattedAddress":"Avenue Louise 91-93, 1050 Ixelles, Belgium","lat":50.831526,"lng":4.359172,"zipcode":"1050","city":"Ixelles"},{"location":"CSU, Dominguez Hills - Sculpture Garden","address":"1000 E Victoria St Carson ","formattedAddress":"Extended Education Center - EE, 1000 E Victoria St, Carson, CA 90747, USA","lat":33.8653106,"lng":-118.2590121,"zipcode":"90747","city":"Carson"},{"location":"The Wallis Annenberg Center for the Performing Arts","address":"9390 North Santa Monica Boulevard, Beverly Hills,  ","formattedAddress":"9390 N Santa Monica Blvd, Beverly Hills, CA 90210, USA","lat":34.0722901,"lng":-118.4012055,"zipcode":"90210","city":"Beverly Hills"},{"location":"LEVEL","address":"888 S. Olive Street Los Angeles, CA  Downtown ","formattedAddress":"888 S Olive St, Los Angeles, CA 90015, USA","lat":34.0437942,"lng":-118.2577112,"zipcode":"90015","city":"Los Angeles","neighborhood":"Downtown"},{"location":"dublab","address":"4519 Santa Monica Boulevard 4519 Santa Monica Boulevard CA Los Angeles","formattedAddress":"4519 Santa Monica Blvd, Los Angeles, CA 90029, USA","lat":34.0909885,"lng":-118.2870572,"zipcode":"90029","city":"Los Angeles","neighborhood":"Hollywood"},{"location":"344 , Dhula Garden","address":"344 , Dhula Garden Miami CA 33114"},{"location":"Hollywood and Vine St.","address":"Hollywood Blvd &amp; Vine St, Los Angeles, CA Hollywood ","formattedAddress":"Hollywood Blvd & Vine St, Los Angeles, CA 90028, USA","lat":34.1016345,"lng":-118.3267051,"zipcode":"90028","city":"Los Angeles","neighborhood":"Hollywood"},{"location":"St. Charles Borromeo School","address":"10850 Moorpark Street  North Hollywood ","formattedAddress":"10850 Moorpark St, North Hollywood, CA 91602, USA","lat":34.1500286,"lng":-118.3673907,"zipcode":"91602","city":"Los Angeles","neighborhood":"North Hollywood"},{"location":"Davey's Locker","address":"400 Main Street Newport Beach CA","formattedAddress":"400 Main St, Newport Beach, CA 92661, USA","lat":33.6027472,"lng":-117.8988851,"zipcode":"92661","city":"Newport Beach","neighborhood":"Balboa Peninsula"},{"location":"Ronald Reagan Presidential Library and Museum","address":"40 Presidential Drive Simi Valley ","formattedAddress":"40 Presidential Dr, Simi Valley, CA 93065, USA","lat":34.2598671,"lng":-118.8198082,"zipcode":"93065","city":"Simi Valley"},{"location":"Skirball Center","address":"2701 N Sepulveda Blvd Los Angeles ","formattedAddress":"2701 N Sepulveda Blvd, Los Angeles, CA 90049, USA","lat":34.124832,"lng":-118.4791916,"zipcode":"90049","city":"Los Angeles"},{"location":"California Museum of Art Thousand Oaks (CMATO)","address":"1948 Thousand Oaks Blvd Westlake Village ","formattedAddress":"1948 Thousand Oaks Blvd, Thousand Oaks, CA 91362, USA","lat":34.1759445,"lng":-118.8491312,"zipcode":"91362","city":"Thousand Oaks"},{"location":"Skirball Center","address":"2701 N. Sepulveda Blvd Los Angeles ","formattedAddress":"2701 N Sepulveda Blvd, Los Angeles, CA 90049, USA","lat":34.124832,"lng":-118.4791916,"zipcode":"90049","city":"Los Angeles"},{"location":"Hornblower Cruises","address":"13755 Fiji Way 13755 Fiji Way CA","formattedAddress":"13755 Fiji Way, Marina Del Rey, CA 90292, USA","lat":33.9725614,"lng":-118.4462468,"zipcode":"90292","city":"Marina del Rey"},{"location":"El Segundo Museum of Art (ESMoA)","address":"208 Main St. El Segundo ","formattedAddress":"208 Main St, El Segundo, CA 90245, USA","lat":33.9181864,"lng":-118.4156457,"zipcode":"90245","city":"El Segundo"},{"location":"Heal the Bay’s Santa Monica Pier Aquarium","address":"1600 Ocean Front Walk  ","formattedAddress":"1600 Ocean Front Walk, Santa Monica, CA 90401, USA","lat":34.010005,"lng":-118.4959934,"zipcode":"90401","city":"Santa Monica"},{"location":"El Camp","address":"2150 Park Place, El Segundo, CA El Segundo ","formattedAddress":"2150 E El Segundo Blvd, El Segundo, CA 90245, USA","lat":33.9162775,"lng":-118.3874744,"zipcode":"90245","city":"El Segundo"},{"location":"The Community Center of La Cañada Flintridge","address":"4469 Chevy Chase Drive La Canada Flintridge ","formattedAddress":"4469 Chevy Chase Dr, La Cañada Flintridge, CA 91011, USA","lat":34.2041598,"lng":-118.2014764,"zipcode":"91011","city":"La Cañada Flintridge"},{"location":"Arena1 Gallery/Santa Monica Art Studios","address":"3026 Airport Ave Santa Monica ","formattedAddress":"3026 Airport Ave, Santa Monica, CA 90405, USA","lat":34.0139244,"lng":-118.4490829,"zipcode":"90405","city":"Santa Monica"},{"location":"The Secret Rose theatre","address":"11246 Magnolia Blvd. North Hollywood ","formattedAddress":"11246 W Magnolia Blvd, North Hollywood, CA 91601, USA","lat":34.1646919,"lng":-118.3761702,"zipcode":"91601","city":"Los Angeles","neighborhood":"North Hollywood"},{"location":"Hollywood & Highland","address":"6801 Hollywood Blvd Los Angeles ","formattedAddress":"6801 Hollywood Blvd, Los Angeles, CA 90028, USA","lat":34.1025489,"lng":-118.3401051,"zipcode":"90028","city":"Los Angeles","neighborhood":"Hollywood"},{"location":"Cypress Park Recreation Center","address":"2630 Pepper Ave Mount Washington ","formattedAddress":"2630 Pepper Ave, Los Angeles, CA 90065, USA","lat":34.0895554,"lng":-118.2253108,"zipcode":"90065","city":"Los Angeles","neighborhood":"Northeast Los Angeles"},{"location":"Atwater Village Theatre","address":"3269 Casitas Ave Los Angeles ","formattedAddress":"3269 Casitas Ave, Los Angeles, CA 90039, USA","lat":34.1164165,"lng":-118.2518773,"zipcode":"90039","city":"Los Angeles","neighborhood":"Northeast Los Angeles"},{"location":"Dr. Paul Carlson Memorial Park","address":"10400 Braddock Drive Culver City ","formattedAddress":"10400 Braddock Dr, Culver City, CA 90232, USA","lat":34.0146574,"lng":-118.3982929,"zipcode":"90232","city":"Culver City","neighborhood":"Carlson Park"},{"location":"Dr. Paul Carlson Memorial Park","address":"Braddock Drive at Motor Avenue Braddock Drive at Motor Avenue CA","formattedAddress":"Dr Paul Carlson Memorial Park, Culver City, CA 90232, USA","lat":34.0135591,"lng":-118.3978713,"zipcode":"90232","city":"Culver City","neighborhood":"Carlson Park"},{"location":"Theatre 40","address":"241 S. Moreno Dr. Beverly Hills ","formattedAddress":"241 S Moreno Dr, Beverly Hills, CA 90212, USA","lat":34.0614775,"lng":-118.4104242,"zipcode":"90212","city":"Beverly Hills"},{"location":"Ruskin Group Theatre","address":"3000 Airport Ave. Santa Monica ","formattedAddress":"3000 Airport Ave, Santa Monica, CA 90405, USA","lat":34.0134461,"lng":-118.4497944,"zipcode":"90405","city":"Santa Monica"},{"location":"The Zephyr Theatre","address":"7456 Melrose Avenue West Hollywood ","formattedAddress":"7456 Melrose Ave, West Hollywood, CA 90046, USA","lat":34.0833229,"lng":-118.3525757,"zipcode":"90046","city":"West Hollywood","neighborhood":"Central LA"},{"location":"Rowland Heights Center","address":"18150 Pathfinder Rd. Rowland Heights ","formattedAddress":"18150 Pathfinder Rd, Rowland Heights, CA 91748, USA","lat":33.966144,"lng":-117.912631,"zipcode":"91748","city":"Rowland Heights"},{"location":"Faultline Bar","address":"4216 Melrose Avenue, Los Angeles, CA Mid-Wilshire ","formattedAddress":"4216 Melrose Ave, Los Angeles, CA 90029, USA","lat":34.083439,"lng":-118.292403,"zipcode":"90029","city":"Los Angeles","neighborhood":"Central LA"},{"location":"Night Palm","address":"1724 Silver Lake Blvd. Silver Lake ","formattedAddress":"1724 Silver Lake Blvd, Los Angeles, CA 90026, USA","lat":34.0897556,"lng":-118.2677864,"zipcode":"90026","city":"Los Angeles","neighborhood":"Silver Lake"},{"location":"Skirball Center","address":"2701 N Sepulveda Blvd Los Angeles, CA ","formattedAddress":"2701 N Sepulveda Blvd, Los Angeles, CA 90049, USA","lat":34.124832,"lng":-118.4791916,"zipcode":"90049","city":"Los Angeles"},{"location":"Pacific Avenue Arts Colony","address":"303 S. Pacific Ave. San Pedro ","formattedAddress":"303 S Pacific Ave, San Pedro, CA 90731, USA","lat":33.7411443,"lng":-118.2881367,"zipcode":"90731","city":"Los Angeles","neighborhood":"San Pedro"},{"location":"WERKARTZ","address":"927 S Santa Fe Ave Downtown ","formattedAddress":"927 S Santa Fe Ave, Los Angeles, CA 90021, USA","lat":34.0318356,"lng":-118.2303859,"zipcode":"90021","city":"Los Angeles","neighborhood":"Central LA"},{"location":"Sylmar Recreation Center and Park","address":"13109 Borden Ave Lake View Terrace ","formattedAddress":"13109 Borden Ave, Sylmar, CA 91342, USA","lat":34.3047868,"lng":-118.4396838,"zipcode":"91342","city":"Los Angeles","neighborhood":"Sylmar"},{"location":"Downtown","address":"1 Pier Avenue Hermosa Beach ","formattedAddress":"1 Pier Ave, Hermosa Beach, CA 90254, USA","lat":33.8619265,"lng":-118.401697,"zipcode":"90254","city":"Hermosa Beach"},{"location":"L.A. Zoo","address":"5333 Drive Los Angeles ","formattedAddress":"5333 Los Angeles St, Houston, TX 77026, USA","lat":29.8082011,"lng":-95.3275183,"zipcode":"77026","city":"Houston","neighborhood":"Northeast Houston"},{"location":"Lake Balboa Complex","address":"6335 Woodley Avenue Van Nuys ","formattedAddress":"6335 Woodley Ave, Van Nuys, CA 91406, USA","lat":34.1857051,"lng":-118.4909031,"zipcode":"91406","city":"Los Angeles","neighborhood":"Van Nuys"},{"location":"James West Alumni Center","address":"325 Westwood Plaza, Los Angeles, CA  ","formattedAddress":"James West Alumni Center, 325 Westwood Plaza, Los Angeles, CA 90095, USA","lat":34.0702103,"lng":-118.4452885,"zipcode":"90095","city":"Los Angeles","neighborhood":"Westwood"},{"location":"Salt & Straw West Hollywood","address":"8949 Santa Monica Blvd   ","formattedAddress":"8949 Santa Monica Blvd, West Hollywood, CA 90069, USA","lat":34.0841873,"lng":-118.3856006,"zipcode":"90069","city":"West Hollywood","neighborhood":"Norma Triangle"},{"location":"Garfield Park","address":"1000 Park Ave South Pasadena ","formattedAddress":"1000 Park Ave, South Pasadena, CA 91030, USA","lat":34.1154946,"lng":-118.1477364,"zipcode":"91030","city":"South Pasadena"},{"location":"Ford Theatres","address":"2580 Cahuenga Blvd. East Hollywood ","formattedAddress":"2580 Cahuenga Blvd E, Los Angeles, CA 90068, USA","lat":34.1140558,"lng":-118.3343777,"zipcode":"90068","city":"Los Angeles","neighborhood":"Central LA"},{"location":"Pan Andreas Theater","address":"5119 Melrose Ave. Los Angeles CA","formattedAddress":"5119 Melrose Ave, Los Angeles, CA 90038, USA","lat":34.0839131,"lng":-118.3119992,"zipcode":"90038","city":"Los Angeles","neighborhood":"Central LA"},{"location":"Cafe Club Fais Do Do","address":"5253 W Adams Blvd Los Angees ","formattedAddress":"5253 W Adams Blvd, Los Angeles, CA 90016, USA","lat":34.0328031,"lng":-118.3569536,"zipcode":"90016","city":"Los Angeles"},{"location":"Ford Theaters","address":"2580 Cahuenga Blvd Hollywood ","formattedAddress":"2580 Cahuenga Blvd, Los Angeles, CA 90068, USA","lat":34.1167804,"lng":-118.3366578,"zipcode":"90068","city":"Los Angeles","neighborhood":"Central LA"},{"location":"Ace Hotel Downtown LA","address":"929 South Broadway Los Angeles ","formattedAddress":"929 S Broadway, Los Angeles, CA 90015, USA","lat":34.0418769,"lng":-118.2570341,"zipcode":"90015","city":"Los Angeles","neighborhood":"Central LA"},{"location":"Centennial Square at Pasadena City Hall","address":"100 N Garfield Ave  Pasadena ","formattedAddress":"100 Garfield Ave, Pasadena, CA 91101, USA","lat":34.14764540000001,"lng":-118.1437979,"zipcode":"91101","city":"Pasadena"},{"location":"Ralphs","address":"12842 Ventura Blvd.  Studio City ","formattedAddress":"12842 Ventura Blvd, Studio City, CA 91604, USA","lat":34.1440896,"lng":-118.4131463,"zipcode":"91604","city":"Los Angeles","neighborhood":"Studio City"},{"location":"Boyle Heights Family Resource Center","address":"1200 N. State St., Ste. 1069 Downtown ","formattedAddress":"1200 N State St #1069, Jackson, MS 39202, USA","lat":32.3145426,"lng":-90.1776866,"zipcode":"39202","city":"Jackson","neighborhood":"Greater Belhaven"},{"location":"Herman Miller Showroom","address":"3641 Holdrege Avenue Los Angeles ","formattedAddress":"3641 Holdrege Ave, Los Angeles, CA 90016, USA","lat":34.0197935,"lng":-118.3785909,"zipcode":"90016","city":"Los Angeles","neighborhood":"South Los Angeles"},{"location":"TreePeople Ampitheatre","address":"12601 Mulholland Drive  ","formattedAddress":"12601 Mulholland Dr, Studio City, CA 91604, USA","lat":34.1291351,"lng":-118.4062733,"zipcode":"91604","city":"Los Angeles","neighborhood":"Studio City"},{"location":"James Armstrong Theatre","address":"3330 Civic Center Drive Torrance ","formattedAddress":"3330 Civic Center Dr, Torrance, CA 90503, USA","lat":33.8393642,"lng":-118.3434411,"zipcode":"90503","city":"Torrance"},{"location":"Catalina Jazz","address":"6725 W. Sunset Blvd. Hollywood ","formattedAddress":"6725 Sunset Blvd, Los Angeles, CA 90028, USA","lat":34.09834420000001,"lng":-118.3373005,"zipcode":"90028","city":"Los Angeles","neighborhood":"Hollywood"},{"location":"Placita Olvera (El Pueblo)","address":"425 N. Los Angeles St. Downtown ","formattedAddress":"425 N Los Angeles St, Los Angeles, CA 90012, USA","lat":34.0558393,"lng":-118.23909,"zipcode":"90012","city":"Los Angeles","neighborhood":"Chinatown"},{"location":"Fairplex Pomona","address":"1101 West McKinley Ave. Pomona ","formattedAddress":"1101 W McKinley Ave, Pomona, CA 91768, USA","lat":34.0809612,"lng":-117.7651993,"zipcode":"91768","city":"Pomona","neighborhood":"Westmont"},{"location":"BrickHouse Theatre","address":"10950 Peachgrove Street North Hollywood ","formattedAddress":"10950 Peach Grove St, North Hollywood, CA 91601, USA","lat":34.1588704,"lng":-118.3697999,"zipcode":"91601","city":"Los Angeles","neighborhood":"North Hollywood"},{"location":"Grace Loves Lace","address":"1510 Abbot Kinney Blvd  Venice ","formattedAddress":"1510 Abbot Kinney Blvd, Venice, CA 90291, USA","lat":33.9900785,"lng":-118.4645477,"zipcode":"90291","city":"Los Angeles","neighborhood":"Venice"},{"location":"Sepulveda Recreation Basin in Encino","address":"16212 Burbank Blvd, Encino, CA  Encino ","formattedAddress":"16212 Burbank Blvd, Encino, CA 91436, USA","lat":34.1703579,"lng":-118.4785154,"zipcode":"91436","city":"Los Angeles","neighborhood":"Encino"},{"location":"Beverly Hills Farmers' Market","address":"9300 Block of Civic Center Drive  ","formattedAddress":"9300 Civic Center Dr, Beverly Hills, CA 90210, USA","lat":34.0738573,"lng":-118.3990532,"zipcode":"90210","city":"Beverly Hills"},{"location":"The Westin Bonaventure Hotel","address":"404 S Figueroa St. Los Angeles, CA ","formattedAddress":"404 S Figueroa St, Los Angeles, CA 90071, USA","lat":34.0525714,"lng":-118.2560081,"zipcode":"90071","city":"Los Angeles","neighborhood":"Central LA"},{"location":"UCLA Library","address":"280 Charles E. Young Dr. North, Los Angeles, CA   ","formattedAddress":"Charles E. Young Research Library, 280 Charles E Young Dr N, Los Angeles, CA 90095, USA","lat":34.0749691,"lng":-118.441466,"zipcode":"90095","city":"Los Angeles","neighborhood":"Westwood"},{"location":"Write Act Repertory  Brickhouse Theatre","address":"10950 Peach Grove Street  North Hollywood ","formattedAddress":"10950 Peach Grove St, North Hollywood, CA 91601, USA","lat":34.1588704,"lng":-118.3697999,"zipcode":"91601","city":"Los Angeles","neighborhood":"North Hollywood"},{"location":"Catalina Jazz","address":"6725 W. Sunset Blvd. Hollywood CA","formattedAddress":"6725 Sunset Blvd, Los Angeles, CA 90028, USA","lat":34.09834420000001,"lng":-118.3373005,"zipcode":"90028","city":"Los Angeles","neighborhood":"Hollywood"},{"location":"Sherman Oaks Galleria, Community Room","address":"15301 Ventura Blvd. Sherman Oaks ","formattedAddress":"15301 Ventura Blvd, Sherman Oaks, CA 91403, USA","lat":34.155264,"lng":-118.467411,"zipcode":"91403","city":"Los Angeles","neighborhood":"Sherman Oaks"},{"location":"Autry National Center of the America West","address":"4700 Western Heritage Way Los Angeles ","formattedAddress":"4700 Western Heritage Way, Los Angeles, CA 90027, USA","lat":34.1486203,"lng":-118.2812131,"zipcode":"90027","city":"Los Angeles"},{"location":"Wood & Vine","address":"6280 Hollywood Blvd Hollywood CA","formattedAddress":"6280 Hollywood Blvd, Los Angeles, CA 90028, USA","lat":34.1014005,"lng":-118.3261774,"zipcode":"90028","city":"Los Angeles","neighborhood":"Hollywood"},{"location":"Catalina Jazz","address":"6725 W Sunset Blvd Hollywood ","formattedAddress":"6725 Sunset Blvd, Los Angeles, CA 90028, USA","lat":34.09834420000001,"lng":-118.3373005,"zipcode":"90028","city":"Los Angeles","neighborhood":"Hollywood"},{"location":"Roxbury Park","address":"471 Roxbury Dr  ","formattedAddress":"471 Roxbury Dr, Beverly Hills, CA 90212, USA","lat":34.0575949,"lng":-118.4061113,"zipcode":"90212","city":"Beverly Hills"},{"location":"Roxbury Park","address":"471 S Roxbury Dr Beverly Hills ","formattedAddress":"471 Roxbury Dr, Beverly Hills, CA 90212, USA","lat":34.0575949,"lng":-118.4061113,"zipcode":"90212","city":"Beverly Hills"},{"location":"Terrace Theater - Long Beach Convention Center","address":"300 E Ocean BL Long Beach CA","formattedAddress":"300 E Ocean Blvd, Long Beach, CA 90802, USA","lat":33.765196,"lng":-118.1874735,"zipcode":"90802","city":"Long Beach","neighborhood":"Waterfront"},{"location":"Human Resources","address":"410 Cottage Home St (near Broadway Los Angeles ","formattedAddress":"410 Cottage Home St, Los Angeles, CA 90012, USA","lat":34.0674516,"lng":-118.2358475,"zipcode":"90012","city":"Los Angeles","neighborhood":"Chinatown"},{"location":"The GRAMMY Museum at L.A. Live","address":"800 W Olympic Blvd. Los Angeles ","formattedAddress":"Lucky Strike Bowling - Los Angeles, 800 W Olympic Blvd, Los Angeles, CA 90015, USA","lat":34.0447954,"lng":-118.2652703,"zipcode":"90015","city":"Los Angeles","neighborhood":"Central LA"},{"location":"Viper Room","address":"8852 W Sunset Blvd West Hollywood ","formattedAddress":"8852 Sunset Blvd, West Hollywood, CA 90069, USA","lat":34.0904329,"lng":-118.3850555,"zipcode":"90069","city":"West Hollywood","neighborhood":"Norma Triangle"},{"location":"Natural History Museum","address":"900 Exposition Blvd. Los Angeles CA","formattedAddress":"900 Exposition Blvd, Los Angeles, CA 90007, USA","lat":34.0170572,"lng":-118.288771,"zipcode":"90007","city":"Los Angeles","neighborhood":"South Los Angeles"},{"location":"Polliwog Park","address":"1601 Manhattan Beach Blvd Manhattan Beach ","formattedAddress":"1601 Manhattan Beach Blvd, Manhattan Beach, CA 90266, USA","lat":33.8878168,"lng":-118.3848086,"zipcode":"90266","city":"Manhattan Beach"},{"location":"Quixote Studios","address":"1011 N Fuller Ave. West Hollywood ","formattedAddress":"1011 N Fuller Ave, West Hollywood, CA 90046, USA","lat":34.0893303,"lng":-118.3502425,"zipcode":"90046","city":"West Hollywood","neighborhood":"Central LA"},{"location":"Corriganville Park","address":"7001 Smith Road Simi Valley ","formattedAddress":"7001 Smith Rd, Simi Valley, CA 93063, USA","lat":34.2634177,"lng":-118.6546326,"zipcode":"93063","city":"Simi Valley"},{"location":"Exact location is revealed to ticket holders 48-hours prior to start of event","address":"Malibu, CA  Malibu ","formattedAddress":"Malibu, CA, USA","lat":34.0259216,"lng":-118.7797571,"city":"Malibu"},{"location":"Books and Cookies","address":"2309 Main Street Whittier ","formattedAddress":"2309 Whittier Blvd, Los Angeles, CA 90023, USA","lat":34.0347991,"lng":-118.2166847,"zipcode":"90023","city":"Los Angeles","neighborhood":"Boyle Heights"},{"location":"Old Town Newhall Library","address":"24500 Main St. Newhall ","formattedAddress":"24500 Main St, Santa Clarita, CA 91321, USA","lat":34.3816582,"lng":-118.5301861,"zipcode":"91321","city":"Santa Clarita","neighborhood":"Newhall"},{"location":"ART LANDING GALLERY","address":"1146 South Inglewood Ave Inglewood ","formattedAddress":"1146 S Inglewood Ave, Inglewood, CA 90301, USA","lat":33.9474481,"lng":-118.361098,"zipcode":"90301","city":"Inglewood"},{"location":"The G2 Gallery","address":"1503 Abbot Kinney Blvd Venice ","formattedAddress":"1503 Abbot Kinney Blvd, Venice, CA 90291, USA","lat":33.99051000000001,"lng":-118.4646202,"zipcode":"90291","city":"Los Angeles","neighborhood":"Venice"},{"location":"Starlight Bowl Amphitheater","address":"1249 Lockheed View Dr. Burbank ","formattedAddress":"1249 Lockheed View Dr, Burbank, CA 91501, USA","lat":34.206325,"lng":-118.3101015,"zipcode":"91501","city":"Burbank"},{"location":"Gabba Gallery","address":"3126 Beverly Blvd Los Angeles ","formattedAddress":"3126 Beverly Blvd, Los Angeles, CA 90057, USA","lat":34.0719998,"lng":-118.2830273,"zipcode":"90057","city":"Los Angeles","neighborhood":"Central LA"},{"location":"Revive Theater","address":"12420 Santa Monica Blvd. West Los Angeles ","formattedAddress":"12420 Santa Monica Blvd, Los Angeles, CA 90025, USA","lat":34.0389221,"lng":-118.4670902,"zipcode":"90025","city":"Los Angeles","neighborhood":"Sawtelle"},{"location":"California Institute of Abnormalarts","address":"11334 Burbank Blvd North Hollywood ","formattedAddress":"11334 Burbank Blvd, North Hollywood, CA 91601, USA","lat":34.1719819,"lng":-118.3774363,"zipcode":"91601","city":"Los Angeles","neighborhood":"North Hollywood"},{"location":"Elk's Lodge","address":"20925 Osborne St. Canoga Park ","formattedAddress":"20925 Osborne St, Canoga Park, CA 91304, USA","lat":34.2334588,"lng":-118.589515,"zipcode":"91304","city":"Los Angeles","neighborhood":"Canoga Park"},{"location":"Gaslamp Long Beach","address":"6251 E. Pacific Coast Highway Long Beach ","formattedAddress":"6251 E Pacific Coast Hwy, Long Beach, CA 90803, USA","lat":33.7671249,"lng":-118.1163545,"zipcode":"90803","city":"Long Beach","neighborhood":"Marina"},{"location":"The Riviera Country Club","address":"1250 Capri Pacific Palisades CA","formattedAddress":"1250 Capri Dr, Pacific Palisades, CA 90272, USA","lat":34.0497944,"lng":-118.5013378,"zipcode":"90272","city":"Los Angeles","neighborhood":"Pacific Palisades"},{"location":"The Riviera Country Club","address":"1250 Capri Pacific Palisades ","formattedAddress":"1250 Capri Dr, Pacific Palisades, CA 90272, USA","lat":34.0497944,"lng":-118.5013378,"zipcode":"90272","city":"Los Angeles","neighborhood":"Pacific Palisades"},{"location":"Go For Broke National Education Center","address":"355 E. 1st Street Los Angeles ","formattedAddress":"355 E 1st St, Los Angeles, CA 90012, USA","lat":34.0494891,"lng":-118.2396109,"zipcode":"90012","city":"Los Angeles","neighborhood":"Central LA"},{"location":"National Council of Jewish Women | Los Angeles","address":"543 N. Fairfax Ave.  La Brea ","formattedAddress":"543 N Fairfax Ave, Los Angeles, CA 90036, USA","lat":34.0814455,"lng":-118.3617972,"zipcode":"90036","city":"Los Angeles","neighborhood":"Central LA"},{"location":"Adventure County Park","address":"10130 Gunn Ave Whittier ","formattedAddress":"10130 Gunn Ave, Whittier, CA 90605, USA","lat":33.9423685,"lng":-118.0368718,"zipcode":"90605","city":"Whittier","neighborhood":"East Whitter"},{"location":"Team One","address":"13031 W Jefferson Blvd., Suite 800 Playa Vista ","formattedAddress":"13031 W Jefferson Blvd #800, Los Angeles, CA 90066, USA","lat":33.9756883,"lng":-118.4263553,"zipcode":"90066","city":"Los Angeles"},{"location":"The Bloc","address":"700 S. Flower Street Downtown ","formattedAddress":"700 S Flower St, Los Angeles, CA 90017, USA","lat":34.0482805,"lng":-118.2589431,"zipcode":"90017","city":"Los Angeles","neighborhood":"Central LA"},{"location":"Terranea Resort","address":"100 Terranea Way Rancho Palos Verdes ","formattedAddress":"100 Terranea Way, Rancho Palos Verdes, CA 90275, USA","lat":33.7395694,"lng":-118.3989944,"zipcode":"90275","city":"Rancho Palos Verdes"},{"location":"Colony Theatre","address":"555 North Third Street Burbank ","formattedAddress":"555 N 3rd St, Burbank, CA 91502, USA","lat":34.185223,"lng":-118.312228,"zipcode":"91502","city":"Burbank"},{"location":"Kibitz Room at Canter's Deli","address":"419 N. Fairfax Ave Los Angeles ","formattedAddress":"419 N Fairfax Ave, Los Angeles, CA 90036, USA","lat":34.0787736,"lng":-118.3615812,"zipcode":"90036","city":"Los Angeles","neighborhood":"Central LA"},{"location":"Rainbow Lagoon Park","address":"E Shoreline Dr Long Beach, CA ","formattedAddress":"E Shoreline Dr, Long Beach, CA 90802, USA","lat":33.76233089999999,"lng":-118.1874679,"zipcode":"90802","city":"Long Beach","neighborhood":"Downtown"},{"location":"Modo Yoga LA","address":"1755 Glendale Blvd Silver Lake ","formattedAddress":"1755 Glendale Blvd, Los Angeles, CA 90026, USA","lat":34.0873076,"lng":-118.2600168,"zipcode":"90026","city":"Los Angeles","neighborhood":"Silver Lake"},{"location":"Shakey's","address":"935 W Arbor Vitae St. Inglewood ","formattedAddress":"935 W Arbor Vitae St, Inglewood, CA 90301, USA","lat":33.9530001,"lng":-118.3730499,"zipcode":"90301","city":"Inglewood"},{"location":"The Unique Space","address":"1275 E 6th St Los Angeles CA","formattedAddress":"1275 E 6th St, Los Angeles, CA 90021, USA","lat":34.038445,"lng":-118.23654,"zipcode":"90021","city":"Los Angeles","neighborhood":"Downtown"},{"location":"The Baldwin Hills Crenshaw Plaza","address":"3650 W Martin Luther King Jr Blvd Leimert Park ","formattedAddress":"3650 W Martin Luther King Jr Blvd, Los Angeles, CA 90008, USA","lat":34.0086011,"lng":-118.3356047,"zipcode":"90008","city":"Los Angeles","neighborhood":"South Los Angeles"},{"location":"Los Angeles County Arboretum & Botanic Gardens","address":"301 North Baldwin Ave. Arcadia, CA Arcadia ","formattedAddress":"301 N Baldwin Ave, Arcadia, CA 91007, USA","lat":34.1448511,"lng":-118.05079,"zipcode":"91007","city":"Arcadia"},{"location":"Newport Dunes Resort","address":"101 N. Bayside Drive Newport Beach ","formattedAddress":"101 N Bayside Dr, Newport Beach, CA 92660, USA","lat":33.6184779,"lng":-117.8950848,"zipcode":"92660","city":"Newport Beach"},{"location":"Mariachi Plaza / Boyle Heights Community Event Stage","address":"Corner of East 1st Street and Boyle Street Boyle Heights ","formattedAddress":"S Boyle Ave & N Boyle Ave, Los Angeles, CA 90033, USA","lat":34.0472258,"lng":-118.2198644,"zipcode":"90033","city":"Los Angeles","neighborhood":"Central LA"},{"location":"The Amphitheater at Wilson Park","address":"2200 Crenshaw Blvd Torrance ","formattedAddress":"2200 Crenshaw Blvd, Torrance, CA 90501, USA","lat":33.82494459999999,"lng":-118.3284953,"zipcode":"90501","city":"Torrance"},{"location":"La Cienega Park","address":"325 South La Cienega Boulevard  Beverly Hills ","formattedAddress":"325 S La Cienega Blvd, Los Angeles, CA 90048, USA","lat":34.0611568,"lng":-118.3767577,"zipcode":"90048","city":"Los Angeles"},{"location":"The Marengo Gallery","address":"18 N. Marengo Ave.  ","formattedAddress":"18 Marengo Ave, Pasadena, CA 91101, USA","lat":34.147094,"lng":-118.1457918,"zipcode":"91101","city":"Pasadena"},{"location":"Think Tank Art Gallery","address":"939 Maple Ave Los Angeles ","formattedAddress":"939 Maple Ave, Los Angeles, CA 90015, USA","lat":34.0387504,"lng":-118.25387,"zipcode":"90015","city":"Los Angeles","neighborhood":"Central LA"},{"location":"Theatre West","address":"3333 Cahuenga Blvd. West Los Angeles ","formattedAddress":"3333 Cahuenga Blvd W, Los Angeles, CA 90068, USA","lat":34.1306428,"lng":-118.351188,"zipcode":"90068","city":"Los Angeles","neighborhood":"Studio City"},{"location":"Casa Vertigo","address":"1828 Oak street  Downtown ","formattedAddress":"1828 Oak St, Kansas City, MO 64108, USA","lat":39.0912561,"lng":-94.57913359999999,"zipcode":"64108","city":"Kansas City","neighborhood":"Crossroads"},{"location":"Elysian Park","address":"829 Academy Rd Los Angeles CA ","formattedAddress":"829 Academy Rd, Los Angeles, CA 90012, USA","lat":34.0792058,"lng":-118.2355158,"zipcode":"90012","city":"Los Angeles","neighborhood":"Echo Park"},{"location":"Skirball Center","address":"2701 N Sepulveda Blvd Brentwood ","formattedAddress":"2701 N Sepulveda Blvd, Los Angeles, CA 90049, USA","lat":34.124832,"lng":-118.4791916,"zipcode":"90049","city":"Los Angeles"},{"location":"Trump National Golf Club Los Angeles","address":"One Trump National Drive Rancho Palos Verdes ","formattedAddress":"1 Trump National Dr, Rancho Palos Verdes, CA 90275, USA","lat":33.7297774,"lng":-118.3497842,"zipcode":"90275","city":"Rancho Palos Verdes"},{"location":"APLA Health","address":"3741 S La Brea  Downtown ","formattedAddress":"3741 South La Brea Ave, Los Angeles, CA 90016, USA","lat":34.0186337,"lng":-118.3564812,"zipcode":"90016","city":"Los Angeles","neighborhood":"South Los Angeles"},{"location":"Pasadena Civic Plaza","address":"300 E. Green Street Pasadena ","formattedAddress":"300 E Green St, Pasadena, CA 91101, USA","lat":34.143817,"lng":-118.144302,"zipcode":"91101","city":"Pasadena"},{"location":"Fremont Centre Theatre","address":"1000 Fremont Ave. South Pasadena ","formattedAddress":"1000 Fremont Ave, South Pasadena, CA 91030, USA","lat":34.114471,"lng":-118.1527583,"zipcode":"91030","city":"South Pasadena"},{"location":"Westfield UTC Shopping Center","address":"4545 La Jolla Village Drive, Suite E-25 San Diego, CA ","formattedAddress":"4545 La Jolla Village Dr e, San Diego, CA 92122, USA","lat":32.8706894,"lng":-117.2110084,"zipcode":"92122","city":"San Diego","neighborhood":"University City"},{"location":"Beckman Mall Lawn at Caltech","address":"332 S. Michigan Ave. Pasadena ","formattedAddress":"332 S Michigan Ave, Pasadena, CA 91106, USA","lat":34.1401365,"lng":-118.1256617,"zipcode":"91106","city":"Pasadena"},{"location":"Odyssey Theatre Ensemble","address":"2055 S. Sepulveda Blvd. Los Angeles "},"[{\"location\":\"Skirball Cultural Center\",\"address\":\"2701 N. Sepulveda Blvd. Los Angeles, \",\"formattedAddress\":\"2701 N Sepulveda Blvd, Los Angeles, CA 90049, USA\",\"neighborhood\":null,\"lat\":34.124832,\"lng\":-118.4791916,\"zipcode\":\"90049\"},{\"location\":\"Pasadena Museum of History\",\"address\":\"470 W. Walnut St. Pasadena, \",\"formattedAddress\":\"470 W Walnut St, Pasadena, CA 91103, USA\",\"neighborhood\":\"North Arroyo\",\"lat\":34.1490951,\"lng\":-118.1609863,\"zipcode\":\"91103\"},{\"location\":\"Japanese American National Museum\",\"address\":\"100 N. Central Ave. Los Angeles, \",\"formattedAddress\":\"100 N Central Ave, Los Angeles, CA 90012, USA\",\"neighborhood\":\"Central LA\",\"lat\":34.0492148,\"lng\":-118.2391478,\"zipcode\":\"90012\"},{\"location\":\"Huntington Library, Art Collections and Botanical Gardens\",\"address\":\"1151 Oxford Rd. San Marino, \",\"formattedAddress\":\"1151 Oxford Rd, San Marino, CA 91108, USA\",\"neighborhood\":null,\"lat\":34.1278618,\"lng\":-118.1094516,\"zipcode\":\"91108\"},{\"location\":\"Mark Taper Forum\",\"address\":\"135 N. Grand Ave. Los Angeles, \",\"formattedAddress\":\"135 N Grand Ave, Los Angeles, CA 90012, USA\",\"neighborhood\":\"Downtown\",\"lat\":34.0566067,\"lng\":-118.2489325,\"zipcode\":\"90012\"},{\"location\":\"Los Angeles Museum of the Holocaust\",\"address\":\"100 S. The Grove Dr. Los Angeles, \",\"formattedAddress\":\"100 The Grove Dr, Los Angeles, CA 90036, USA\",\"neighborhood\":\"Fairfax\",\"lat\":34.074523,\"lng\":-118.355691,\"zipcode\":\"90036\"},{\"location\":\"Venus Over Los Angeles\",\"address\":\"601 S. Anderson St. Los Angeles, \",\"formattedAddress\":\"601 S Anderson St, Los Angeles, CA 90023, USA\",\"neighborhood\":\"Central LA\",\"lat\":34.038945,\"lng\":-118.2243706,\"zipcode\":\"90023\"},{\"location\":\"Natural History Museum of Los Angeles County\",\"address\":\"900 Exposition Blvd. Los Angeles, \",\"formattedAddress\":\"900 Exposition Blvd, Los Angeles, CA 90007, USA\",\"neighborhood\":\"South Los Angeles\",\"lat\":34.0170769,\"lng\":-118.2886818,\"zipcode\":\"90007\"},{\"location\":\"The Line Hotel\",\"address\":\"3515 Wilshire Blvd. Los Angeles, \",\"formattedAddress\":\"3515 Wilshire Blvd, Los Angeles, CA 90010, USA\",\"neighborhood\":\"Koreatown\",\"lat\":34.0620711,\"lng\":-118.3010331,\"zipcode\":\"90010\"},{\"location\":\"Commonwealth & Council\",\"address\":\"3006 W. Seventh St., #220 Los Angeles, \",\"formattedAddress\":\"3006 W 7th St #220, Los Angeles, CA 90005, USA\",\"neighborhood\":\"Wilshire Center\",\"lat\":34.0595367,\"lng\":-118.289449,\"zipcode\":\"90005\"},{\"location\":\"Blue Whale\",\"address\":\"123 Astronaut E.S. Onizuka St. Los Angeles, \",\"formattedAddress\":\"123 Astronaut E S Onizuka St, Los Angeles, CA 90012, USA\",\"neighborhood\":\"Downtown\",\"lat\":34.0501009,\"lng\":-118.2421794,\"zipcode\":\"90012\"},{\"location\":\"Harvelle's Santa Monica\",\"address\":\"1432 Fourth St. Santa Monica, \",\"formattedAddress\":\"1432 4th St, Santa Monica, CA 90401, USA\",\"neighborhood\":\"Downtown\",\"lat\":34.0156047,\"lng\":-118.4944879,\"zipcode\":\"90401\"},{\"location\":\"Backstage Bar & Grill\",\"address\":\"10400 Culver Blvd. Culver City, \",\"formattedAddress\":\"10400 Culver Blvd, Culver City, CA 90232, USA\",\"neighborhood\":\"Carlson Park\",\"lat\":34.0162779,\"lng\":-118.4001275,\"zipcode\":\"90232\"},{\"location\":\"The Dresden Restaurant\",\"address\":\"1760 N. Vermont Ave. Los Angeles, \",\"formattedAddress\":\"1760 N Vermont Ave, Los Angeles, CA 90027, USA\",\"neighborhood\":\"Los Feliz\",\"lat\":34.1030944,\"lng\":-118.2914886,\"zipcode\":\"90027\"},{\"location\":\"Page Museum\",\"address\":\"5801 Wilshire Blvd. Los Angeles, \",\"formattedAddress\":\"5801 Wilshire Blvd, Los Angeles, CA 90036, USA\",\"neighborhood\":\"Mid-Wilshire\",\"lat\":34.0638208,\"lng\":-118.3554627,\"zipcode\":\"90036\"},{\"location\":\"Colombo's Italian Steakhouse & Jazz Club\",\"address\":\"1833 Colorado Blvd. Eagle Rock, \",\"formattedAddress\":\"1833 Colorado Blvd, Los Angeles, CA 90041, USA\",\"neighborhood\":\"Northeast Los Angeles\",\"lat\":34.1395978,\"lng\":-118.2072713,\"zipcode\":\"90041\"},{\"location\":\"Fowler Museum at UCLA\",\"address\":\"Sunset & Westwood blvds. Westwood, \",\"formattedAddress\":\"11461 Sunset Blvd, Los Angeles, CA 90049, USA\",\"neighborhood\":\"Brentwood\",\"lat\":34.072598,\"lng\":-118.468582,\"zipcode\":\"90049\"},{\"location\":\"The Autry\",\"address\":\"4700 Western Heritage Way Los Angeles, \",\"formattedAddress\":\"4700 Western Heritage Way, Los Angeles, CA 90027, USA\",\"neighborhood\":null,\"lat\":34.1486202,\"lng\":-118.2812132,\"zipcode\":\"90027\"},{\"location\":\"Las Hadas\",\"address\":\"9048 Balboa Blvd. Northridge, \",\"formattedAddress\":\"9048 Balboa Blvd, Northridge, CA 91325, USA\",\"neighborhood\":\"Northridge\",\"lat\":34.235028,\"lng\":-118.5020911,\"zipcode\":\"91325\"},{\"location\":\"Glendale City Seventh-Day Adventist Church\",\"address\":\"610 E. California Ave. Los Angeles, \",\"formattedAddress\":\"610 E California Ave, Glendale, CA 91206, USA\",\"neighborhood\":\"Downtown\",\"lat\":34.1497453,\"lng\":-118.2484602,\"zipcode\":\"91206\"},{\"location\":\"The Mint\",\"address\":\"6010 W. Pico Blvd. Los Angeles, \",\"formattedAddress\":\"6010 W Pico Blvd, Los Angeles, CA 90035, USA\",\"neighborhood\":\"Mid City\",\"lat\":34.0521634,\"lng\":-118.3716095,\"zipcode\":\"90035\"},{\"location\":\"Whisky A Go-Go\",\"address\":\"8901 Sunset Blvd. West Hollywood, \",\"formattedAddress\":\"8901 Sunset Blvd, West Hollywood, CA 90069, USA\",\"neighborhood\":\"Sunset Strip\",\"lat\":34.0908403,\"lng\":-118.3857013,\"zipcode\":\"90069\"},{\"location\":\"The Wiltern\",\"address\":\"3790 Wilshire Blvd. Los Angeles, \",\"formattedAddress\":\"3790 Wilshire Blvd, Los Angeles, CA 90010, USA\",\"neighborhood\":\"Koreatown\",\"lat\":34.0614896,\"lng\":-118.3087587,\"zipcode\":\"90010\"},{\"location\":\"Brea Improv\",\"address\":\"120 S. Brea Blvd Brea, California 92821 714-482-0700\",\"formattedAddress\":\"120 S Brea Blvd, Brea, CA 92821, USA\",\"neighborhood\":null,\"lat\":33.9193832,\"lng\":-117.8984393,\"zipcode\":\"92821\"},{\"location\":\"Largo at the Coronet\",\"address\":\"366 N. La Cienega Blvd. Los Angeles, \",\"formattedAddress\":\"366 N La Cienega Blvd, Los Angeles, CA 90048, USA\",\"neighborhood\":\"Central LA\",\"lat\":34.0778713,\"lng\":-118.3763218,\"zipcode\":\"90048\"},{\"location\":\"Union Nightclub\",\"address\":\"4067 W. Pico Blvd. Los Angeles, \",\"formattedAddress\":\"4067 W Pico Blvd, Los Angeles, CA 90019, USA\",\"neighborhood\":\"Mid City\",\"lat\":34.047775,\"lng\":-118.3241134,\"zipcode\":\"90019\"},{\"location\":\"Angel Stadium of Anaheim\",\"address\":\"2000 Gene Autry Way Anaheim, \",\"formattedAddress\":\"2000 E Gene Autry Way, Anaheim, CA 92806, USA\",\"neighborhood\":\"Platinum Triangle\",\"lat\":33.8002902,\"lng\":-117.8827493,\"zipcode\":\"92806\"},{\"location\":\"Silverlake Lounge\",\"address\":\"2906 Sunset Blvd. Los Angeles, \",\"formattedAddress\":\"2906 Sunset Blvd, Los Angeles, CA 90026, USA\",\"neighborhood\":\"Silver Lake\",\"lat\":34.0828261,\"lng\":-118.2736878,\"zipcode\":\"90026\"},{\"location\":\"Hollywood Bowl\",\"address\":\"2301 N. Highland Ave. Los Angeles, \",\"formattedAddress\":\"2301 Highland Ave, Los Angeles, CA 90068, USA\",\"lat\":34.1127392,\"lng\":-118.3388562,\"zipcode\":\"90068\",\"city\":\"Los Angeles\",\"neighborhood\":\"Central LA\"},{\"location\":\"Pershing Square\",\"address\":\"532 S. Olive St. Los Angeles, \",\"formattedAddress\":\"532 S Olive St, Los Angeles, CA 90013, USA\",\"lat\":34.0485099,\"lng\":-118.2532776,\"zipcode\":\"90013\",\"city\":\"Los Angeles\",\"neighborhood\":\"Downtown\"},{\"location\":\"The Echo\",\"address\":\"1822 W. Sunset Blvd. Los Angeles, \",\"formattedAddress\":\"1822 Sunset Blvd, Los Angeles, CA 90026, USA\",\"neighborhood\":\"Echo Park\",\"lat\":34.0777287,\"lng\":-118.260108,\"zipcode\":\"90026\"},{\"location\":\"The Hi Hat\",\"address\":\"5043 York Blvd. Highland Park, \",\"formattedAddress\":\"5043 York Blvd, Los Angeles, CA 90042, USA\",\"neighborhood\":\"Eagle Rock\",\"lat\":34.1214595,\"lng\":-118.2053922,\"zipcode\":\"90042\"},{\"location\":\"Beverly O'Neill Theater - Long Beach Conv and Entertainment Ctr\",\"address\":\"300 E Ocean BL Long Beach CA\",\"formattedAddress\":\"300 E Ocean Blvd, Long Beach, CA 90802, USA\",\"neighborhood\":\"Waterfront\",\"lat\":33.76520350000001,\"lng\":-118.1893341,\"zipcode\":\"90802\"},{\"location\":\"The Greek Theatre\",\"address\":\"2700 N. Vermont Ave. Los Angeles, \",\"formattedAddress\":\"2700 N Vermont Ave, Los Angeles, CA 90027, USA\",\"neighborhood\":null,\"lat\":34.1205588,\"lng\":-118.2963915,\"zipcode\":\"90027\"},{\"location\":\"The Blue Guitar, Arroyo Seco Golf Course\",\"address\":\"1055 Lohman Lane South Pasadena, \",\"formattedAddress\":\"1055 Lohman Ln, South Pasadena, CA 91030, USA\",\"lat\":34.117108,\"lng\":-118.167742,\"zipcode\":\"91030\",\"city\":\"South Pasadena\"},{\"location\":\"Hollywood Improv (The Main Room)\",\"address\":\"8162 Melrose Ave. Hollywood, \",\"formattedAddress\":\"8162 Melrose Ave, Los Angeles, CA 90048, USA\",\"neighborhood\":\"Beverly Grove\",\"lat\":34.0834368,\"lng\":-118.3672735,\"zipcode\":\"90048\"},{\"location\":\"The Redwood Bar & Grill\",\"address\":\"316 W. Second St. Los Angeles, \",\"formattedAddress\":\"316 W 2nd St, Los Angeles, CA 90012, USA\",\"neighborhood\":\"Downtown\",\"lat\":34.0526005,\"lng\":-118.2474909,\"zipcode\":\"90012\"},{\"location\":\"Catalina Bar & Grill\",\"address\":\"6725 W. Sunset Blvd. Los Angeles, \",\"formattedAddress\":\"6725 Sunset Blvd, Los Angeles, CA 90028, USA\",\"neighborhood\":\"Hollywood\",\"lat\":34.09834420000001,\"lng\":-118.3373005,\"zipcode\":\"90028\"},{\"location\":\"The Townhouse\",\"address\":\"52 Windward Ave. Venice, \",\"formattedAddress\":\"52 Windward Ave, Venice, CA 90291, USA\",\"neighborhood\":\"Venice\",\"lat\":33.9871768,\"lng\":-118.4726295,\"zipcode\":\"90291\"},{\"location\":\"Stratford School - Melrose\",\"address\":\"1200 North Cahuenga Boulevard Los Angeles, CA, Hollywood, \",\"formattedAddress\":\"1200 N Cahuenga Blvd, Los Angeles, CA 90038, USA\",\"neighborhood\":\"Hollywood\",\"lat\":34.0928299,\"lng\":-118.3283288,\"zipcode\":\"90038\"},{\"location\":\"The Point\",\"address\":\"850 S. Sepulveda Blvd. El Segundo, \",\"formattedAddress\":\"850 S Sepulveda Blvd, El Segundo, CA 90245, USA\",\"lat\":33.9031445,\"lng\":-118.3954149,\"zipcode\":\"90245\",\"city\":\"El Segundo\"},{\"location\":\"American Museum of Ceramic Art\",\"address\":\"399 N. Garey Ave Pomona, California 91767 909-865-3146\",\"formattedAddress\":\"399 N Garey Ave, Pomona, CA 91767, USA\",\"neighborhood\":\"Westmont\",\"lat\":34.0611548,\"lng\":-117.7507227,\"zipcode\":\"91767\"},{\"location\":\"Hornblower Cruises & Events\",\"address\":\"13755 Fiji Way Marina Del Rey \",\"formattedAddress\":\"13755 Fiji Way, Marina Del Rey, CA 90292, USA\",\"lat\":33.9725614,\"lng\":-118.4462468,\"zipcode\":\"90292\",\"city\":\"Marina del Rey\"},{\"location\":\"Macgowan Little Theater, UCLA\",\"address\":\"245 Charles E. Young Drive East Los Angeles, \",\"formattedAddress\":\"Macgowan Hall, 245 Charles E Young Dr E, Los Angeles, CA 90095, USA\",\"lat\":34.0758815,\"lng\":-118.4396813,\"zipcode\":\"90095\",\"city\":\"Los Angeles\",\"neighborhood\":\"Westwood\"},{\"location\":\"The Community Center of La Canada Flintridge\",\"address\":\"4469 Chevy Chase Dr. La Canada Flintridge, \",\"formattedAddress\":\"4469 Chevy Chase Dr, La Cañada Flintridge, CA 91011, USA\",\"neighborhood\":null,\"lat\":34.2041598,\"lng\":-118.2014764,\"zipcode\":\"91011\"},{\"location\":\"Olvera Street\",\"address\":\"845 N. Alameda St. Los Angeles, \",\"formattedAddress\":\"845 North Alameda Street, Los Angeles, CA 90012, USA\",\"lat\":34.0574412,\"lng\":-118.2376558,\"zipcode\":\"90012\",\"city\":\"Los Angeles\",\"neighborhood\":\"Central LA\"},{\"location\":\"The Help Group Autism Center\",\"address\":\"13164 Burbank Blvd. Sherman Oaks, California 91401 818-781-0360\",\"formattedAddress\":\"13164 Burbank Blvd, Sherman Oaks, CA 91401, USA\",\"lat\":34.171325,\"lng\":-118.42022,\"zipcode\":\"91401\",\"city\":\"Los Angeles\",\"neighborhood\":\"Sherman Oaks\"},{\"location\":\"Matthew Marks Gallery\",\"address\":\"1062 N. Orange Grove Los Angeles, \",\"formattedAddress\":\"1062 N Orange Grove Ave, West Hollywood, CA 90046, USA\",\"neighborhood\":\"Central LA\",\"lat\":34.0904301,\"lng\":-118.3603558,\"zipcode\":\"90046\"},{\"location\":\"Meliksetian | Briggs\",\"address\":\"313 N. Fairfax Ave. Los Angeles, \",\"formattedAddress\":\"313 N Fairfax Ave, Los Angeles, CA 90036, USA\",\"neighborhood\":\"Beverly Grove\",\"lat\":34.0766654,\"lng\":-118.3616314,\"zipcode\":\"90036\"},{\"location\":\"Chinese American Museum\",\"address\":\"425 N. Los Angeles St. Los Angeles, \",\"formattedAddress\":\"425 N Los Angeles St, Los Angeles, CA 90012, USA\",\"neighborhood\":\"Central LA\",\"lat\":34.0558393,\"lng\":-118.23909,\"zipcode\":\"90012\"},{\"location\":\"New Wight Gallery\",\"address\":\"1100 Broad Art Center Los Angeles, \",\"formattedAddress\":\"Broad Art Center, 240 Charles E Young Dr N, Los Angeles, CA 90095, USA\",\"neighborhood\":\"Westwood\",\"lat\":34.075885,\"lng\":-118.4409969,\"zipcode\":\"90095\"},{\"location\":\"Vespaio\",\"address\":\"225 S Grand Ave Los Angeles, \",\"formattedAddress\":\"225 S Grand Ave, Los Angeles, CA 90012, USA\",\"neighborhood\":\"Downtown\",\"lat\":34.054058,\"lng\":-118.251161,\"zipcode\":\"90012\"},{\"location\":\"Artists and Fleas\",\"address\":\"647 Mateo St. Los Angeles, \",\"formattedAddress\":\"647 Mateo St, Los Angeles, CA 90021, USA\",\"lat\":34.0364202,\"lng\":-118.2328638,\"zipcode\":\"90021\",\"city\":\"Los Angeles\",\"neighborhood\":\"Downtown\"},{\"location\":\"Museum of Broken Relationships\",\"address\":\"6751 Hollywood Blvd Los Angeles, California 90028 323-892-8103\",\"formattedAddress\":\"6751 Hollywood Blvd, Hollywood, CA 90028, USA\",\"neighborhood\":\"Hollywood\",\"lat\":34.1017702,\"lng\":-118.3376512,\"zipcode\":\"90028\"},{\"location\":\"Caliber Collision\",\"address\":\"3020 Riverside Dr. Los Angeles, \",\"formattedAddress\":\"3020 Riverside Dr, Los Angeles, CA 90039, USA\",\"lat\":34.111901,\"lng\":-118.2673221,\"zipcode\":\"90039\",\"city\":\"Los Angeles\",\"neighborhood\":\"Silver Lake\"},{\"location\":\"The Groundlings Theater\",\"address\":\"7307 Melrose Ave. Los Angeles, \",\"formattedAddress\":\"7307 Melrose Ave, Los Angeles, CA 90046, USA\",\"neighborhood\":\"Fairfax\",\"lat\":34.0838002,\"lng\":-118.3490097,\"zipcode\":\"90046\"},{\"location\":\"Escape Room LA\",\"address\":\"120 E. 8th St Los Angeles, \",\"formattedAddress\":\"120 E 8th St, Los Angeles, CA 90014, USA\",\"neighborhood\":\"Downtown\",\"lat\":34.0420721,\"lng\":-118.2528292,\"zipcode\":\"90014\"},{\"location\":\"First Independent Gallery (FIG)\",\"address\":\"2525 Michigan Ave., G6 Santa Monica, \",\"formattedAddress\":\"2525 Michigan Ave, Santa Monica, CA 90405, USA\",\"neighborhood\":\"Pico\",\"lat\":34.02778929999999,\"lng\":-118.4684355,\"zipcode\":\"90405\"},{\"location\":\"Discovery Cube in Los Angeles\",\"address\":\"11800 Foothill Blvd. Los Angeles, California 91342 818-686-2823\",\"formattedAddress\":\"11800 Foothill Blvd, Sylmar, CA 91342, USA\",\"neighborhood\":\"Sylmar\",\"lat\":34.2729595,\"lng\":-118.3932212,\"zipcode\":\"91342\"},{\"location\":\"San Luis Obispo Museum of Art\",\"address\":\"1010 Broad St. San Luis Obispo, \",\"formattedAddress\":\"1010 Broad St, San Luis Obispo, CA 93401, USA\",\"lat\":35.2795805,\"lng\":-120.6649827,\"zipcode\":\"93401\",\"city\":\"San Luis Obispo\",\"neighborhood\":\"Downtown\"},{\"location\":\"Edgemar Center for the Arts\",\"address\":\"2437 Main St. Santa Monica, \",\"formattedAddress\":\"2437 Main St, Santa Monica, CA 90405, USA\",\"neighborhood\":\"Ocean Park\",\"lat\":34.0035616,\"lng\":-118.4847408,\"zipcode\":\"90405\"},{\"location\":\"The Copper Still\",\"address\":\"4493 Beverly Blvd. Los Angeles, \",\"formattedAddress\":\"4493 Beverly Blvd, Los Angeles, CA 90004, USA\",\"neighborhood\":\"Hollywood\",\"lat\":34.0764323,\"lng\":-118.3066935,\"zipcode\":\"90004\"},{\"location\":\"Multiple Locations\",\"address\":\"Multiple Locations Greater Los Angeles, California 90001 415-512-0151\"},{\"location\":\"The Automobile Driving Museum\",\"address\":\"610 Lairport St. El Segundo, \",\"formattedAddress\":\"610 Lairport St, El Segundo, CA 90245, USA\",\"neighborhood\":null,\"lat\":33.9247131,\"lng\":-118.3922325,\"zipcode\":\"90245\"},{\"location\":\"Pregerson Technical Facility\",\"address\":\"12000 Vista del Mar, #230A Playa del Rey, \",\"formattedAddress\":\"12000 Vista Del Mar #230a, Playa Del Rey, CA 90293, USA\",\"lat\":33.9251867,\"lng\":-118.4307107,\"zipcode\":\"90293\",\"city\":\"Los Angeles\",\"neighborhood\":\"Playa del Rey\"},{\"location\":\"Homibing\",\"address\":\"3300 W. Sixth St. Los Angeles, \",\"formattedAddress\":\"3300 W 6th St, Los Angeles, CA 90020, USA\",\"lat\":34.06341099999999,\"lng\":-118.2943457,\"zipcode\":\"90020\",\"city\":\"Los Angeles\",\"neighborhood\":\"Central LA\"},{\"location\":\"Los Angeles Convention Center\",\"address\":\"1201 S. Figueroa St. Los Angeles, \",\"formattedAddress\":\"1201 S Figueroa St, Los Angeles, CA 90015, USA\",\"neighborhood\":\"Central LA\",\"lat\":34.0413606,\"lng\":-118.2697771,\"zipcode\":\"90015\"},{\"location\":\"Westwood Village\",\"address\":\"1031 Broxton Ave Los Angeles, CA California 90024 310-470-1812\",\"formattedAddress\":\"1031 Broxton Ave, Los Angeles, CA 90024, USA\",\"neighborhood\":\"Westwood\",\"lat\":34.0618175,\"lng\":-118.4465493,\"zipcode\":\"90024\"},{\"location\":\"REDCAT: Roy & Edna Disney/CalArts Theater\",\"address\":\"631 W. Second St. Los Angeles, \",\"formattedAddress\":\"631 W 2nd St, Los Angeles, CA 90012, USA\",\"neighborhood\":\"Downtown\",\"lat\":34.0550997,\"lng\":-118.2505889,\"zipcode\":\"90012\"},{\"location\":\"The Barkley Restaurant & Bar\",\"address\":\"1400 Huntington Dr. South Pasadena, \",\"formattedAddress\":\"1400 Huntington Dr, South Pasadena, CA 91030, USA\",\"lat\":34.1044402,\"lng\":-118.152313,\"zipcode\":\"91030\",\"city\":\"South Pasadena\"},{\"location\":\"Revolver Gallery\",\"address\":\"2525 Michigan Avenue, D4 Santa Monica, \",\"formattedAddress\":\"2525 Michigan Ave, Santa Monica, CA 90405, USA\",\"neighborhood\":\"Pico\",\"lat\":34.02778929999999,\"lng\":-118.4684355,\"zipcode\":\"90405\"},{\"location\":\"AMC Orange 30 (AMC Block 30)\",\"address\":\"20 City Blvd. W. Orange, \",\"formattedAddress\":\"20 City Blvd W, Orange, CA 92868, USA\",\"neighborhood\":\"Anaheim Resort\",\"lat\":33.7848294,\"lng\":-117.8935314,\"zipcode\":\"92868\"},{\"location\":\"Vintage Grocers\",\"address\":\"140 Promenade Way Westlake Village, California 91362 805-230-0010\",\"formattedAddress\":\"140 Promenade Way, Thousand Oaks, CA 91362, USA\",\"neighborhood\":null,\"lat\":34.1587765,\"lng\":-118.8208825,\"zipcode\":\"91362\"},{\"location\":\"Edemar center\",\"address\":\"2437 main st Santa Monica, \",\"formattedAddress\":\"2437 Main St, Santa Monica, CA 90405, USA\",\"lat\":34.0035616,\"lng\":-118.4847408,\"zipcode\":\"90405\",\"city\":\"Santa Monica\",\"neighborhood\":\"Ocean Park\"},{\"location\":\"The Arena at the Anaheim Convention Center\",\"address\":\"800 W. Katella Ave. Anaheim, \",\"formattedAddress\":\"800 W Katella Ave, Anaheim, CA 92802, USA\",\"neighborhood\":\"Convention Center\",\"lat\":33.8003652,\"lng\":-117.9208568,\"zipcode\":\"92802\"},{\"location\":\"Fleming's Prime Steakhouse\",\"address\":\"179 E. Colorado Blvd, Pasadena, \",\"formattedAddress\":\"179 E Colorado Blvd, Pasadena, CA 91101, USA\",\"lat\":34.1458062,\"lng\":-118.1466612,\"zipcode\":\"91101\",\"city\":\"Pasadena\"},{\"location\":\"The Teragram Ballroom\",\"address\":\"1234 W. Seventh St. Los Angeles, \",\"formattedAddress\":\"1234 W 7th St, Los Angeles, CA 90017, USA\",\"neighborhood\":\"Central LA\",\"lat\":34.0518639,\"lng\":-118.2670623,\"zipcode\":\"90017\"},{\"location\":\"The Mayan\",\"address\":\"1038 S. Hill St. Los Angeles, \",\"formattedAddress\":\"1038 Hill St, Los Angeles, CA 90015, USA\",\"lat\":34.0405255,\"lng\":-118.2591274,\"zipcode\":\"90015\",\"city\":\"Los Angeles\",\"neighborhood\":\"Downtown\"},{\"location\":\"Grammy Museum\",\"address\":\"800 W. Olympic Blvd. Los Angeles, \",\"formattedAddress\":\"800 W Olympic Blvd, Los Angeles, CA 90015, USA\",\"neighborhood\":\"Downtown\",\"lat\":34.0449376,\"lng\":-118.2654979,\"zipcode\":\"90015\"},{\"location\":\"LACMA\",\"address\":\"5905 Wilshire Blvd. Los Angeles, \",\"formattedAddress\":\"5905 Wilshire Blvd, Los Angeles, CA 90036, USA\",\"neighborhood\":\"Mid-Wilshire\",\"lat\":34.0637913,\"lng\":-118.3588851,\"zipcode\":\"90036\"},{\"location\":\"UCB Franklin\",\"address\":\"5919 Franklin Ave. Los Angeles, \",\"formattedAddress\":\"5919 Franklin Ave, Los Angeles, CA 90028, USA\",\"neighborhood\":\"Hollywood Hills\",\"lat\":34.1054499,\"lng\":-118.3187772,\"zipcode\":\"90028\"},{\"location\":\"Cody's Viva Cantina\",\"address\":\"900 Riverside Dr. Burbank, \",\"formattedAddress\":\"900 W Riverside Dr, Burbank, CA 91506, USA\",\"neighborhood\":null,\"lat\":34.1606464,\"lng\":-118.3105679,\"zipcode\":\"91506\"},{\"location\":\"The World Stage\",\"address\":\"4321 Degnan Blvd. Los Angeles, \",\"formattedAddress\":\"4321 Degnan Blvd, Los Angeles, CA 90008, USA\",\"neighborhood\":\"South Los Angeles\",\"lat\":34.0052812,\"lng\":-118.3317413,\"zipcode\":\"90008\"},{\"location\":\"The Virgil\",\"address\":\"4519 Santa Monica Blvd. Los Angeles, \",\"formattedAddress\":\"4519 Santa Monica Blvd, Los Angeles, CA 90029, USA\",\"neighborhood\":\"Hollywood\",\"lat\":34.0910076,\"lng\":-118.2870107,\"zipcode\":\"90029\"},{\"location\":\"The Airliner\",\"address\":\"2419 N. Broadway Los Angeles, \",\"formattedAddress\":\"2419 N Broadway, Los Angeles, CA 90031, USA\",\"neighborhood\":\"Montecito Heights\",\"lat\":34.0738696,\"lng\":-118.2162469,\"zipcode\":\"90031\"},{\"location\":\"The Satellite\",\"address\":\"1717 Silver Lake Blvd. Los Angeles, \",\"formattedAddress\":\"1717 Silver Lake Blvd, Los Angeles, CA 90026, USA\",\"neighborhood\":\"Silver Lake\",\"lat\":34.089872,\"lng\":-118.2682879,\"zipcode\":\"90026\"},{\"location\":\"The Troubadour\",\"address\":\"9081 Santa Monica Blvd. West Hollywood, \",\"formattedAddress\":\"9081 Santa Monica Blvd, West Hollywood, CA 90069, USA\",\"neighborhood\":\"Norma Triangle\",\"lat\":34.0815696,\"lng\":-118.3892793,\"zipcode\":\"90069\"},{\"location\":\"The Echoplex\",\"address\":\"1154 Glendale Blvd. Los Angeles, \",\"formattedAddress\":\"1154 Glendale Blvd, Los Angeles, CA 90026, USA\",\"neighborhood\":\"Echo Park\",\"lat\":34.07759060000001,\"lng\":-118.2605046,\"zipcode\":\"90026\"},{\"location\":\"Alex's Bar\",\"address\":\"2913 E. Anaheim St. Long Beach, \",\"formattedAddress\":\"2913 E Anaheim St, Long Beach, CA 90804, USA\",\"neighborhood\":\"Zaferia\",\"lat\":33.7828017,\"lng\":-118.1573649,\"zipcode\":\"90804\"},{\"location\":\"Seven Grand\",\"address\":\"515 W. Seventh St. Los Angeles, \",\"formattedAddress\":\"515 W 7th St, Los Angeles, CA 90014, USA\",\"neighborhood\":\"Downtown\",\"lat\":34.047132,\"lng\":-118.2558135,\"zipcode\":\"90014\"},{\"location\":\"The Rose\",\"address\":\"245 E. Green St. Pasadena, \",\"formattedAddress\":\"245 E Green St, Pasadena, CA 91101, USA\",\"neighborhood\":null,\"lat\":34.1445579,\"lng\":-118.1450515,\"zipcode\":\"91101\"},{\"location\":\"Hammer Museum\",\"address\":\"10899 Wilshire Blvd, Los Angeles, \",\"formattedAddress\":\"10899 Wilshire Blvd, Los Angeles, CA 90024, USA\",\"neighborhood\":\"Westwood\",\"lat\":34.0591217,\"lng\":-118.4436674,\"zipcode\":\"90024\"},{\"location\":\"El Rey Theatre\",\"address\":\"5515 Wilshire Blvd. Los Angeles, \",\"formattedAddress\":\"5515 Wilshire Blvd, Los Angeles, CA 90036, USA\",\"neighborhood\":\"Mid-Wilshire\",\"lat\":34.0626988,\"lng\":-118.3489004,\"zipcode\":\"90036\"},{\"location\":\"Santa Monica Pier\",\"address\":\"200 Santa Monica Pier Santa Monica \",\"formattedAddress\":\"200 Santa Monica Pier, Santa Monica, CA 90401, USA\",\"neighborhood\":null,\"lat\":34.0098476,\"lng\":-118.4964629,\"zipcode\":\"90401\"},{\"location\":\"Will Geer Theatricum Botanicum\",\"address\":\"1419 N. Topanga Canyon Blvd. Topanga, \",\"formattedAddress\":\"1419 N Topanga Canyon Blvd, Topanga, CA 90290, USA\",\"lat\":34.1108513,\"lng\":-118.5928551,\"zipcode\":\"90290\",\"city\":\"Topanga\"},{\"location\":\"Rockwell Table & Stage\",\"address\":\"1714 N. Vermont Ave. Los Angeles, \",\"formattedAddress\":\"1714 N Vermont Ave, Los Angeles, CA 90027, USA\",\"neighborhood\":\"Los Feliz\",\"lat\":34.1022191,\"lng\":-118.291396,\"zipcode\":\"90027\"},{\"location\":\"Maui Sugar Mill Saloon\",\"address\":\"18389 Ventura Blvd. Tarzana, \",\"formattedAddress\":\"18389 Ventura Blvd, Tarzana, CA 91356, USA\",\"neighborhood\":\"Tarzana\",\"lat\":34.168675,\"lng\":-118.5327741,\"zipcode\":\"91356\"},{\"location\":\"Gamble House\",\"address\":\"4 Westmoreland Pasadena, \",\"formattedAddress\":\"4 Westmoreland Pl, Pasadena, CA 91103, USA\",\"lat\":34.1516225,\"lng\":-118.1609168,\"zipcode\":\"91103\",\"city\":\"Pasadena\",\"neighborhood\":\"North Arroyo\"},{\"location\":\"De Re Gallery\",\"address\":\"8920 Melrose Ave. West Hollywood, \",\"formattedAddress\":\"8920 Melrose Ave, West Hollywood, CA 90069, USA\",\"lat\":34.0806171,\"lng\":-118.3874756,\"zipcode\":\"90069\",\"city\":\"West Hollywood\",\"neighborhood\":\"Central LA\"},{\"location\":\"Celebration Theatre\",\"address\":\"6760 Lexington Ave. Los Angeles, \",\"formattedAddress\":\"6760 Lexington Ave, Los Angeles, CA 90038, USA\",\"neighborhood\":\"Central LA\",\"lat\":34.092476,\"lng\":-118.3377019,\"zipcode\":\"90038\"},{\"location\":\"Escape Hotel Hollywood\",\"address\":\"6633 Hollywood Blvd. Los Angeles, \",\"formattedAddress\":\"6633 Hollywood Blvd, Los Angeles, CA 90028, USA\",\"lat\":34.1017827,\"lng\":-118.3345105,\"zipcode\":\"90028\",\"city\":\"Los Angeles\",\"neighborhood\":\"Hollywood\"},{\"location\":\"The Getty Center\",\"address\":\"1200 Getty Center Dr. Los Angeles, \",\"formattedAddress\":\"1200 Getty Center Dr, Los Angeles, CA 90049, USA\",\"neighborhood\":\"Brentwood\",\"lat\":34.0790329,\"lng\":-118.4751057,\"zipcode\":\"90049\"},{\"location\":\"Grand Performances\",\"address\":\"350 S Grand Ave. Los Angeles, CA.  Downtown \",\"formattedAddress\":\"Two California Plaza, 350 S Grand Ave, Los Angeles, CA 90071, USA\",\"lat\":34.0514719,\"lng\":-118.2516573,\"zipcode\":\"90071\",\"city\":\"Los Angeles\",\"neighborhood\":\"Central LA\"},{\"location\":\"Cinefamily/Silent Movie Theatre\",\"address\":\"611 N. Fairfax Ave. Los Angeles, \",\"formattedAddress\":\"611 N Fairfax Ave, Los Angeles, CA 90036, USA\",\"neighborhood\":\"Beverly Grove\",\"lat\":34.0820093,\"lng\":-118.3617361,\"zipcode\":\"90036\"},{\"location\":\"Center for Land Use Interpretation\",\"address\":\"9331 Venice Blvd. Culver City, \",\"formattedAddress\":\"9331 Venice Blvd, Culver City, CA 90232, USA\",\"neighborhood\":\"Palms\",\"lat\":34.0259925,\"lng\":-118.3948444,\"zipcode\":\"90232\"},{\"location\":\"The Mackey Apartments\",\"address\":\"1137 S. Cochran Ave. Los Angeles, \",\"formattedAddress\":\"1137 S Cochran Ave, Los Angeles, CA 90019, USA\",\"neighborhood\":\"Central LA\",\"lat\":34.0547067,\"lng\":-118.3504201,\"zipcode\":\"90019\"},{\"location\":\"M.i. Westside Comedy Theater\",\"address\":\"1323-A Third St. Promenade (in the alley betw. Third & Fourth Sts. at Arizona Ave.) Santa Monica, \"},{\"location\":\"El Floridita Restaurant\",\"address\":\"1253 N. Vine St. Los Angeles, \",\"formattedAddress\":\"1253 Vine St, Los Angeles, CA 90038, USA\",\"neighborhood\":\"Central LA\",\"lat\":34.0940071,\"lng\":-118.3275855,\"zipcode\":\"90038\"},{\"location\":\"Grand Star Jazz Club\",\"address\":\"943 N. Broadway Los Angeles, \",\"formattedAddress\":\"943 N Broadway, Los Angeles, CA 90012, USA\",\"neighborhood\":\"Old Chinatown\",\"lat\":34.0652074,\"lng\":-118.237149,\"zipcode\":\"90012\"},{\"location\":\"iO West (Improv Olympic)\",\"address\":\"6366 Hollywood Blvd. Los Angeles, \",\"formattedAddress\":\"6366 Hollywood Blvd, Los Angeles, CA 90028, USA\",\"neighborhood\":\"Hollywood\",\"lat\":34.1013952,\"lng\":-118.3287424,\"zipcode\":\"90028\"},{\"location\":\"Los Globos\",\"address\":\"3040 W. Sunset Blvd. Los Angeles, \",\"formattedAddress\":\"3040 Sunset Blvd, Los Angeles, CA 90026, USA\",\"neighborhood\":\"Silver Lake\",\"lat\":34.0838215,\"lng\":-118.2743235,\"zipcode\":\"90026\"},{\"location\":\"House of Blues Anaheim\",\"address\":\"1530 S. Disneyland Dr. Anaheim, \",\"formattedAddress\":\"1530 Disneyland Dr, Anaheim, CA 92802, USA\",\"neighborhood\":\"Anaheim Resort\",\"lat\":33.8095602,\"lng\":-117.9229746,\"zipcode\":\"92802\"},{\"location\":\"Bar 20\",\"address\":\"8462 W. Sunset Blvd. West Hollywood, \",\"formattedAddress\":\"8462 Sunset Blvd, West Hollywood, CA 90069, USA\",\"lat\":34.0943618,\"lng\":-118.3749108,\"zipcode\":\"90069\",\"city\":\"West Hollywood\",\"neighborhood\":\"Sunset Strip\"},{\"location\":\"Zebulon\",\"address\":\"2478 Fletcher Dr. Los Angeles, \",\"formattedAddress\":\"2478 Fletcher Dr, Los Angeles, CA 90039, USA\",\"lat\":34.1071933,\"lng\":-118.2547325,\"zipcode\":\"90039\",\"city\":\"Los Angeles\"},{\"location\":\"Pasadena Museum of California Art\",\"address\":\"490 East Union Street, Pasadena, \",\"formattedAddress\":\"490 E Union St, Pasadena, CA 91101, USA\",\"neighborhood\":null,\"lat\":34.1468743,\"lng\":-118.1401975,\"zipcode\":\"91101\"},{\"location\":\"Cafe NELA\",\"address\":\"1906 Cypress Ave. Los Angeles, \",\"formattedAddress\":\"1906 Cypress Ave, Los Angeles, CA 90065, USA\",\"neighborhood\":\"Northeast Los Angeles\",\"lat\":34.1008484,\"lng\":-118.2350751,\"zipcode\":\"90065\"},{\"location\":\"Amoeba Music\",\"address\":\"6400 Sunset Blvd. Los Angeles, \",\"formattedAddress\":\"6400 Sunset Blvd, Los Angeles, CA 90028, USA\",\"neighborhood\":\"Hollywood\",\"lat\":34.0975274,\"lng\":-118.329153,\"zipcode\":\"90028\"},{\"location\":\"Vitello's Italian Restaurant\",\"address\":\"4349 Tujunga Ave. Studio City, \",\"formattedAddress\":\"4349 Tujunga Ave, North Hollywood, CA 91604, USA\",\"neighborhood\":\"North Hollywood\",\"lat\":34.1488599,\"lng\":-118.3792879,\"zipcode\":\"91604\"},{\"location\":\"McCabe's Guitar Shop\",\"address\":\"3101 Pico Blvd. Santa Monica, \",\"formattedAddress\":\"3101 Pico Blvd, Santa Monica, CA 90405, USA\",\"neighborhood\":\"Pico\",\"lat\":34.026043,\"lng\":-118.457612,\"zipcode\":\"90405\"},{\"location\":\"The Smell\",\"address\":\"247 S. Main St. Los Angeles, \",\"formattedAddress\":\"247 S Main St, Los Angeles, CA 90012, USA\",\"neighborhood\":\"Downtown\",\"lat\":34.0503352,\"lng\":-118.2456679,\"zipcode\":\"90012\"},{\"location\":\"Casa Escobar\",\"address\":\"22969 Pacific Coast Highway Malibu, \",\"formattedAddress\":\"22969 Pacific Coast Hwy, Malibu, CA 90265, USA\",\"lat\":34.037747,\"lng\":-118.677028,\"zipcode\":\"90265\",\"city\":\"Malibu\",\"neighborhood\":\"Eastern Malibu\"},{\"location\":\"Hollywood Palladium\",\"address\":\"6215 W. Sunset Blvd. Los Angeles, \",\"formattedAddress\":\"6215 Sunset Blvd, Los Angeles, CA 90028, USA\",\"neighborhood\":\"Hollywood\",\"lat\":34.0984783,\"lng\":-118.3243046,\"zipcode\":\"90028\"},{\"location\":\"Canyon Club\",\"address\":\"28912 Roadside Dr. Agoura Hills, \",\"formattedAddress\":\"28912 Roadside Dr, Agoura Hills, CA 91301, USA\",\"neighborhood\":null,\"lat\":34.144004,\"lng\":-118.7551541,\"zipcode\":\"91301\"},{\"location\":\"The Cinema Bar\",\"address\":\"3967 Sepulveda Blvd. Culver City, \",\"formattedAddress\":\"3967 Sepulveda Blvd, Culver City, CA 90230, USA\",\"neighborhood\":\"Clarkdale\",\"lat\":34.0094096,\"lng\":-118.4146843,\"zipcode\":\"90230\"},{\"location\":\"Molly Malone's\",\"address\":\"575 S. Fairfax Ave. Los Angeles, \",\"formattedAddress\":\"575 S Fairfax Ave, Los Angeles, CA 90036, USA\",\"neighborhood\":\"Carthay Circle\",\"lat\":34.065287,\"lng\":-118.361697,\"zipcode\":\"90036\"},{\"location\":\"Pig 'N Whistle\",\"address\":\"6714 Hollywood Blvd. Los Angeles, \",\"formattedAddress\":\"6714 Hollywood Blvd, Los Angeles, CA 90028, USA\",\"neighborhood\":\"Hollywood\",\"lat\":34.1014255,\"lng\":-118.3367545,\"zipcode\":\"90028\"},{\"location\":\"Resident\",\"address\":\"428 S. Hewitt St. Los Angeles, \",\"formattedAddress\":\"428 S Hewitt St, Los Angeles, CA 90013, USA\",\"neighborhood\":\"Downtown\",\"lat\":34.042668,\"lng\":-118.234922,\"zipcode\":\"90013\"},{\"location\":\"Gaslamp Restaurant & Bar\",\"address\":\"6251 E. Pacific Coast Highway Long Beach, \",\"formattedAddress\":\"6251 E Pacific Coast Hwy, Long Beach, CA 90803, USA\",\"neighborhood\":\"Marina\",\"lat\":33.7671249,\"lng\":-118.1163545,\"zipcode\":\"90803\"},{\"location\":\"Bootleg Theater\",\"address\":\"2200 Beverly Blvd. Los Angeles, \",\"formattedAddress\":\"2200 Beverly Blvd, Los Angeles, CA 90057, USA\",\"neighborhood\":\"Central LA\",\"lat\":34.0669309,\"lng\":-118.271662,\"zipcode\":\"90057\"},{\"location\":\"OHM Nightclub\",\"address\":\"6801 Hollywood Blvd. Los Angeles, \",\"formattedAddress\":\"6801 Hollywood Blvd, Los Angeles, CA 90028, USA\",\"neighborhood\":\"Hollywood\",\"lat\":34.1025903,\"lng\":-118.3400444,\"zipcode\":\"90028\"},{\"location\":\"Saint Rocke\",\"address\":\"142 Pacific Coast Highway Hermosa Beach, \",\"formattedAddress\":\"142 Pacific Coast Hwy, Hermosa Beach, CA 90254, USA\",\"neighborhood\":null,\"lat\":33.8562163,\"lng\":-118.3902128,\"zipcode\":\"90254\"},{\"location\":\"Los Angeles Zoo & Botanical Gardens\",\"address\":\"5333 Zoo Dr. Los Angeles, \",\"formattedAddress\":\"5333 Zoo Dr, Los Angeles, CA 90027, USA\",\"lat\":34.1490401,\"lng\":-118.2840485,\"zipcode\":\"90027\",\"city\":\"Los Angeles\"},{\"location\":\"The Monty\",\"address\":\"1222 W. Seventh St. Los Angeles, \",\"formattedAddress\":\"1222 W 7th St, Los Angeles, CA 90017, USA\",\"neighborhood\":\"Central LA\",\"lat\":34.0515896,\"lng\":-118.2667901,\"zipcode\":\"90017\"},{\"location\":\"The Belasco Theater\",\"address\":\"1050 S. Hill St. Los Angeles, \",\"formattedAddress\":\"1050 Hill St, Los Angeles, CA 90015, USA\",\"neighborhood\":\"Downtown\",\"lat\":34.0402556,\"lng\":-118.2592519,\"zipcode\":\"90015\"},{\"location\":\"The Forum\",\"address\":\"3900 W. Manchester Blvd. Inglewood, \",\"formattedAddress\":\"3900 W Manchester Blvd, Inglewood, CA 90305, USA\",\"neighborhood\":\"South Los Angeles\",\"lat\":33.9581667,\"lng\":-118.3418158,\"zipcode\":\"90305\"},{\"location\":\"Amplyfi\",\"address\":\"5617 Melrose Ave. Los Angeles, \",\"formattedAddress\":\"5617 Melrose Ave, Los Angeles, CA 90038, USA\",\"lat\":34.0837318,\"lng\":-118.322817,\"zipcode\":\"90038\",\"city\":\"Los Angeles\",\"neighborhood\":\"Central LA\"},{\"location\":\"Egyptian Theatre\",\"address\":\"6712 Hollywood Blvd., Hollywood, CA Hollywood \",\"formattedAddress\":\"6712 Hollywood Blvd, Los Angeles, CA 90028, USA\",\"neighborhood\":\"Hollywood\",\"lat\":34.1013684,\"lng\":-118.3366935,\"zipcode\":\"90028\"},{\"location\":\"El Portal Theatre\",\"address\":\"5269 Lankershim Blvd. North Hollywood, \",\"formattedAddress\":\"5269 Lankershim Blvd, North Hollywood, CA 91601, USA\",\"neighborhood\":\"North Hollywood\",\"lat\":34.1667182,\"lng\":-118.3762649,\"zipcode\":\"91601\"},{\"location\":\"International Printing Museum\",\"address\":\"315 W. Torrance Blvd. Carson, \",\"formattedAddress\":\"315 W Torrance Blvd, Carson, CA 90745, USA\",\"neighborhood\":null,\"lat\":33.8423643,\"lng\":-118.2822856,\"zipcode\":\"90745\"},{\"location\":\"Southwest Museum, Mount Washington Campus\",\"address\":\"234 Museum Dr. Los Angeles, \",\"formattedAddress\":\"234 Museum Dr, Los Angeles, CA 90065, USA\",\"neighborhood\":\"Northeast Los Angeles\",\"lat\":34.1004316,\"lng\":-118.2061763,\"zipcode\":\"90065\"},{\"location\":\"Short Stop\",\"address\":\"1455 Sunset Blvd. Los Angeles, \",\"formattedAddress\":\"1455 Sunset Blvd, Los Angeles, CA 90026, USA\",\"neighborhood\":\"Echo Park\",\"lat\":34.0753537,\"lng\":-118.2535265,\"zipcode\":\"90026\"},{\"location\":\"The Observatory\",\"address\":\"3503 S. Harbor Blvd. Santa Ana, \",\"formattedAddress\":\"3503 S Harbor Blvd, Santa Ana, CA 92704, USA\",\"neighborhood\":null,\"lat\":33.6997648,\"lng\":-117.9175717,\"zipcode\":\"92704\"},{\"location\":\"Paladino's\",\"address\":\"6101 Reseda Blvd. Reseda, \",\"formattedAddress\":\"6101 Reseda Blvd, Reseda, CA 91335, USA\",\"neighborhood\":\"Reseda\",\"lat\":34.1810015,\"lng\":-118.5360363,\"zipcode\":\"91335\"},{\"location\":\"Club Fais Do-Do\",\"address\":\"5257 W. Adams Blvd. Los Angeles, \",\"formattedAddress\":\"5257 W Adams Blvd, Los Angeles, CA 90016, USA\",\"neighborhood\":null,\"lat\":34.0327355,\"lng\":-118.3571064,\"zipcode\":\"90016\"},{\"location\":\"The Roxy\",\"address\":\"9009 W. Sunset Blvd. West Hollywood, \",\"formattedAddress\":\"9009 Sunset Blvd, West Hollywood, CA 90069, USA\",\"neighborhood\":\"Sunset Strip\",\"lat\":34.0909001,\"lng\":-118.3879395,\"zipcode\":\"90069\"},{\"location\":\"Pappy & Harriet's Pioneertown Palace\",\"address\":\"53688 Pioneertown Rd. Pioneertown, \",\"formattedAddress\":\"53688 Pioneertown Rd, Pioneertown, CA 92268, USA\",\"neighborhood\":null,\"lat\":34.156559,\"lng\":-116.4930662,\"zipcode\":\"92268\"},{\"location\":\"California Institute of Abnormal Arts (C.I.A.)\",\"address\":\"11334 Burbank Blvd. North Hollywood, \",\"formattedAddress\":\"11334 Burbank Blvd, North Hollywood, CA 91601, USA\",\"neighborhood\":\"North Hollywood\",\"lat\":34.1719873,\"lng\":-118.3774298,\"zipcode\":\"91601\"},{\"location\":\"Durden and Ray\",\"address\":\"1923 S. Santa Fe Ave. Los Angeles, CA Downtown \",\"formattedAddress\":\"1923 S Santa Fe Ave, Los Angeles, CA 90021, USA\",\"lat\":34.0223484,\"lng\":-118.2304801,\"zipcode\":\"90021\",\"city\":\"Los Angeles\",\"neighborhood\":\"Boyle Heights\"},{\"location\":\"Pasadena Civic Auditorium\",\"address\":\"300 E. Green St. Pasadena, \",\"formattedAddress\":\"300 E Green St, Pasadena, CA 91101, USA\",\"neighborhood\":null,\"lat\":34.143817,\"lng\":-118.144302,\"zipcode\":\"91101\"},{\"location\":\"The Colburn School of Music, Zipper Concert Hall\",\"address\":\"200 S. Grand Ave. Los Angeles, \",\"formattedAddress\":\"200 S Grand Ave, Los Angeles, CA 90012, USA\",\"lat\":34.0540038,\"lng\":-118.2498686,\"zipcode\":\"90012\",\"city\":\"Los Angeles\",\"neighborhood\":\"Downtown\"},{\"location\":\"Queen Mary Events Park\",\"address\":\"next to the big boat, 1126 Queens Highway Long Beach, \",\"formattedAddress\":\"1126 Queens Hwy, Long Beach, CA 90802, USA\",\"neighborhood\":\"Queensway Bay\",\"lat\":33.7526356,\"lng\":-118.1903235,\"zipcode\":\"90802\"},{\"location\":\"Fred Kavli Theatre, Thousand Oaks Civic Arts Plaza\",\"address\":\"2100 E. Thousand Oaks Blvd. Thousand Oaks, \",\"formattedAddress\":\"2100 Thousand Oaks Blvd, Thousand Oaks, CA 91362, USA\",\"neighborhood\":null,\"lat\":34.1746462,\"lng\":-118.848904,\"zipcode\":\"91362\"},{\"location\":\"Los Angeles Memorial Coliseum\",\"address\":\"3911 S. Figueroa St., Los Angeles 90037, us\",\"formattedAddress\":\"3911 S Figueroa St, Los Angeles, CA 90037, USA\",\"neighborhood\":\"South Los Angeles\",\"lat\":34.0128805,\"lng\":-118.2827671,\"zipcode\":\"90037\"},{\"location\":\"Au Lac\",\"address\":\"710 W. First St. Los Angeles, \",\"formattedAddress\":\"710 W 1st St, Los Angeles, CA 90012, USA\",\"neighborhood\":\"Downtown\",\"lat\":34.05623300000001,\"lng\":-118.250806,\"zipcode\":\"90012\"},{\"location\":\"The Granada Theatre\",\"address\":\"1214 State St. Santa Barbara, \",\"formattedAddress\":\"1214 State St, Santa Barbara, CA 93101, USA\",\"lat\":34.4239219,\"lng\":-119.7046944,\"zipcode\":\"93101\",\"city\":\"Santa Barbara\",\"neighborhood\":\"Santa Barbara Downtown\"},{\"location\":\"Saban Theatre\",\"address\":\"8440 W. Wilshire Blvd. Beverly Hills, \",\"formattedAddress\":\"8440 Wilshire Blvd, Beverly Hills, CA 90211, USA\",\"neighborhood\":null,\"lat\":34.0645718,\"lng\":-118.3748496,\"zipcode\":\"90211\"},{\"location\":\"Aero Theatre\",\"address\":\"1328 Montana Ave., Santa Monica, \",\"formattedAddress\":\"1328 Montana Ave, Santa Monica, CA 90403, USA\",\"neighborhood\":\"Wilshire Montana\",\"lat\":34.0318921,\"lng\":-118.4952572,\"zipcode\":\"90403\"},{\"location\":\"Book Soup\",\"address\":\"8818 Sunset Boulevard, \",\"formattedAddress\":\"8818 Sunset Blvd, West Hollywood, CA 90069, USA\",\"neighborhood\":\"Norma Triangle\",\"lat\":34.0904056,\"lng\":-118.38372,\"zipcode\":\"90069\"},{\"location\":\"ROW DTLA\",\"address\":\"777 S. Alameda St. Los Angeles, CA\",\"formattedAddress\":\"777 S Alameda St, Los Angeles, CA 90021, USA\",\"neighborhood\":\"Downtown\",\"lat\":34.0314345,\"lng\":-118.2388605,\"zipcode\":\"90021\"},{\"location\":\"Trepany House at the Steve Allen Theater\",\"address\":\"4773 Hollywood Blvd. Los Angeles, \",\"formattedAddress\":\"4773 Hollywood Blvd, Los Angeles, CA 90027, USA\",\"neighborhood\":\"Los Feliz\",\"lat\":34.102083,\"lng\":-118.2940281,\"zipcode\":\"90027\"},{\"location\":\"UCB Sunset\",\"address\":\"5419 W. Sunset Blvd. Los Angeles, \",\"formattedAddress\":\"5419 Sunset Blvd, Los Angeles, CA 90027, USA\",\"neighborhood\":\"Hollywood\",\"lat\":34.0984638,\"lng\":-118.3079614,\"zipcode\":\"90027\"},{\"location\":\"Staples Center\",\"address\":\"1111 S. Figueroa St. Los Angeles, \",\"formattedAddress\":\"1111 S Figueroa St, Los Angeles, CA 90015, USA\",\"neighborhood\":\"Downtown\",\"lat\":34.043125,\"lng\":-118.267118,\"zipcode\":\"90015\"},{\"location\":\"La Cita\",\"address\":\"336 S. Hill St. Los Angeles, \",\"formattedAddress\":\"336 Hill St, Los Angeles, CA 90013, USA\",\"neighborhood\":\"Downtown\",\"lat\":34.0507003,\"lng\":-118.2496529,\"zipcode\":\"90013\"},{\"location\":\"Tribal Cafe\",\"address\":\"1651 W. Temple St. Los Angeles, \",\"formattedAddress\":\"1651 W Temple St, Los Angeles, CA 90026, USA\",\"neighborhood\":\"Central LA\",\"lat\":34.06870980000001,\"lng\":-118.2626639,\"zipcode\":\"90026\"},{\"location\":\"Perch\",\"address\":\"448 S. Hill St. Los Angeles, \",\"formattedAddress\":\"448 Hill St, Los Angeles, CA 90013, USA\",\"neighborhood\":\"Downtown\",\"lat\":34.0488342,\"lng\":-118.2513587,\"zipcode\":\"90013\"},{\"location\":\"The Museum of Tolerance\",\"address\":\"9786 W. Pico Blvd. Los Angeles, \",\"formattedAddress\":\"9786 W Pico Blvd, Los Angeles, CA 90035, USA\",\"lat\":34.053697,\"lng\":-118.401716,\"zipcode\":\"90035\",\"city\":\"Los Angeles\",\"neighborhood\":\"Pico - Robertson\"},{\"location\":\"Stories Books & Cafe\",\"address\":\"1716 W. Sunset Blvd. Los Angeles, \",\"formattedAddress\":\"1716 Sunset Blvd, Los Angeles, CA 90026, USA\",\"neighborhood\":\"Echo Park\",\"lat\":34.0772941,\"lng\":-118.2591271,\"zipcode\":\"90026\"},{\"location\":\"Libbey Bowl\",\"address\":\"210 S. Signal St. Ojai, \",\"formattedAddress\":\"210 S Signal St, Ojai, CA 93023, USA\",\"neighborhood\":null,\"lat\":34.4458781,\"lng\":-119.2458306,\"zipcode\":\"93023\"},{\"location\":\"South Coast Botanic Garden\",\"address\":\"26300 Crenshaw Boulevard, Palos Verdes Peninsula, CA, Palos Verdes Estates, \",\"formattedAddress\":\"26300 Crenshaw Blvd, Palos Verdes Estates, CA 90274, USA\",\"neighborhood\":null,\"lat\":33.7831775,\"lng\":-118.3488527,\"zipcode\":\"90274\"},{\"location\":\"The Federal\",\"address\":\"5303 N. Lankershim Blvd. North Hollywood, \",\"formattedAddress\":\"5303 Lankershim Blvd, Los Angeles, CA 91601, USA\",\"lat\":34.1671534,\"lng\":-118.3762863,\"zipcode\":\"91601\",\"city\":\"Los Angeles\",\"neighborhood\":\"NoHo Arts District\"},{\"location\":\"Verdugo Bar\",\"address\":\"3408 Verdugo Road Los Angeles \",\"formattedAddress\":\"3408 Verdugo Rd, Los Angeles, CA 90065, USA\",\"neighborhood\":\"Northeast Los Angeles\",\"lat\":34.1137406,\"lng\":-118.2349602,\"zipcode\":\"90065\"},{\"location\":\"Miles Memorial Playhouse\",\"address\":\"1130 Lincoln Blvd. Santa Monica, \",\"formattedAddress\":\"1130 Lincoln Blvd, Santa Monica, CA 90403, USA\",\"neighborhood\":\"Wilshire Montana\",\"lat\":34.0226618,\"lng\":-118.4956828,\"zipcode\":\"90403\"},{\"location\":\"El Cid\",\"address\":\"4212 W. Sunset Blvd. Los Angeles, \",\"formattedAddress\":\"4212 Sunset Blvd, Los Angeles, CA 90029, USA\",\"neighborhood\":\"Silver Lake\",\"lat\":34.0938296,\"lng\":-118.2824137,\"zipcode\":\"90029\"},{\"location\":\"The Frog Spot\",\"address\":\"2825 Benedict St. Los Angeles, \",\"formattedAddress\":\"2825 Benedict St, Los Angeles, CA 90039, USA\",\"lat\":34.10108,\"lng\":-118.243121,\"zipcode\":\"90039\",\"city\":\"Los Angeles\",\"neighborhood\":\"Echo Park\"},{\"location\":\"Shade Hotel Redondo Beach\",\"address\":\"655 N. Harbor Drive, Redondo Beach, CA, Redondo Beach, \",\"formattedAddress\":\"655 N Harbor Dr, Redondo Beach, CA 90277, USA\",\"neighborhood\":\"South Redondo\",\"lat\":33.8477289,\"lng\":-118.3946334,\"zipcode\":\"90277\"},