[{"location":"UCLA Health Training Center","address":"2275 E. Mariposa Avenue El Segundo, ","formattedAddress":"2275 E Mariposa Ave, El Segundo, CA 90245, USA","lat":33.9245579,"lng":-118.3841203,"zipcode":"90245","city":"El Segundo"},{"location":"Ojai Art Center","address":"113 S Montgomery St. Ojai, CA","formattedAddress":"113 S Montgomery St, Ojai, CA 93023, USA","lat":34.447046,"lng":-119.243792,"zipcode":"93023","city":"Ojai"},{"location":"Umeda Restaurant","address":"6623 Melrose Ave. Los Angeles, ","formattedAddress":"6623 Melrose Ave, Los Angeles, CA 90038, USA","lat":34.0835766,"lng":-118.3395223,"zipcode":"90038","city":"Los Angeles","neighborhood":"Central LA"},{"location":"Catalina Island Museum","address":"217 Metropole Ave. Avalon, ","formattedAddress":"217 Metropole Ave, Avalon, CA 90704, USA","lat":33.343456,"lng":-118.328001,"zipcode":"90704","city":"Avalon"},{"location":"Nevada Museum of Art","address":"160 W. Liberty St. Reno, NV 89501","formattedAddress":"160 W Liberty St, Reno, NV 89501, USA","lat":39.5208179,"lng":-119.8132712,"zipcode":"89501","city":"Reno"},{"location":"The Bruery","address":"715 Dunn Way Placentia, ","formattedAddress":"715 Dunn Way, Placentia, CA 92870, USA","lat":33.8619002,"lng":-117.8802111,"zipcode":"92870","city":"Placentia"},{"location":"The Bloc LA","address":"700 S. Flower St. Los Angeles, ","formattedAddress":"700 S Flower St, Los Angeles, CA 90017, USA","lat":34.0482805,"lng":-118.2589431,"zipcode":"90017","city":"Los Angeles","neighborhood":"Central LA"},{"location":"Laemmle's NoHo 7","address":"5240 Lankershim Blvd. Los Angeles, ","formattedAddress":"5240 Lankershim Blvd, North Hollywood, CA 91601, USA","lat":34.1661289,"lng":-118.3749957,"zipcode":"91601","city":"Los Angeles","neighborhood":"North Hollywood"},{"location":"Montalban Theatre","address":"1615 Vine St. Los Angeles, ","formattedAddress":"1615 Vine St, Los Angeles, CA 90028, USA","lat":34.1002972,"lng":-118.3271407,"zipcode":"90028","city":"Los Angeles","neighborhood":"Central LA"},{"location":"Millennium Biltmore Hotel, Los Angeles","address":"506 S Grand Ave. Los Angeles, ","formattedAddress":"506 S Grand Ave, Los Angeles, CA 90071, USA","lat":34.0498012,"lng":-118.2539457,"zipcode":"90071","city":"Los Angeles","neighborhood":"Downtown"},{"location":"The PLUS. LA","address":"3217 Beverly Boulevard Los Angeles, ","formattedAddress":"3217 Beverly Blvd, Los Angeles, CA 90026, USA","lat":34.07269,"lng":-118.2835498,"zipcode":"90026","city":"Los Angeles","neighborhood":"Central LA"},{"location":"Courtyard by Marriott","address":"13480 Maxella Ave. Marina del Rey, ","formattedAddress":"13480 Maxella Ave, Marina Del Rey, CA 90292, USA","lat":33.9849282,"lng":-118.4409195,"zipcode":"90292","city":"Marina del Rey"},{"location":"N/A","address":"Los Angeles Los Angeles, ","formattedAddress":"Los Angeles, CA, USA","lat":34.0522342,"lng":-118.2436849,"city":"Los Angeles"},{"location":"Wework","address":"12655 W Jefferson Blvd Playa Vista, ","formattedAddress":"12655 W Jefferson Blvd, Los Angeles, CA 90066, USA","lat":33.9793204,"lng":-118.4145918,"zipcode":"90066","city":"Los Angeles"},{"location":"Los Angeles River Center & Gardens","address":"570 West Avenue 26 Los Angeles, ","formattedAddress":"570 W Ave 26, Los Angeles, CA 90065, USA","lat":34.0853586,"lng":-118.2249987,"zipcode":"90065","city":"Los Angeles","neighborhood":"Northeast Los Angeles"},{"location":"The Standard - Downtown LA","address":"550 S. Flower Street Los Angeles, ","formattedAddress":"550 S Flower St, Los Angeles, CA 90071, USA","lat":34.0501654,"lng":-118.2569631,"zipcode":"90071","city":"Los Angeles","neighborhood":"Central LA"},{"location":"Courtyard Los Angeles Westside","address":"6333 Bristol Parkway Culver City, ","formattedAddress":"6333 Bristol Pkwy, Culver City, CA 90230, USA","lat":33.9817278,"lng":-118.3923923,"zipcode":"90230","city":"Culver City","neighborhood":"Fox Hills"},{"location":"HUB 101","address":"CLU Entrepreneurial Center in Westlake Village Westlake Village, California 91361","formattedAddress":"31416 Agoura Rd #105, Westlake Village, CA 91361, USA","lat":34.1451998,"lng":-118.8054094,"zipcode":"91361","city":"Westlake Village"},{"location":"Creative Studios LA","address":"5354 Denny Ave North Hollywood, ","formattedAddress":"5354 Denny Ave, North Hollywood, CA 91601, USA","lat":34.1683257,"lng":-118.3640697,"zipcode":"91601","city":"Los Angeles","neighborhood":"North Hollywood"},{"location":"The Actors Fund - Western Region","address":"5757 Wilshire Boulevard Los Angeles, ","formattedAddress":"SAG-AFTRA, 5757 Wilshire Blvd, Los Angeles, CA 90036, USA","lat":34.0628935,"lng":-118.352952,"zipcode":"90036","city":"Los Angeles","neighborhood":"Central LA"},{"location":"Substrate Gallery","address":"709 N Ridgewood PL Los Angeles, California 90038","formattedAddress":"709 N Ridgewood Pl, Los Angeles, CA 90038, USA","lat":34.0837662,"lng":-118.3149224,"zipcode":"90038","city":"Los Angeles","neighborhood":"Hollywood"},{"location":"Three Clubs Hollywood","address":"1123 North Vine Street Los Angeles, ","formattedAddress":"1123 Vine St, Los Angeles, CA 90038, USA","lat":34.0914652,"lng":-118.3271185,"zipcode":"90038","city":"Los Angeles","neighborhood":"Central LA"},{"location":"Westfield Santa Anita","address":"400 S. Baldwin Ave. Arcadia, ","formattedAddress":"400 S Baldwin Ave, Arcadia, CA 91007, USA","lat":34.1347174,"lng":-118.0516332,"zipcode":"91007","city":"Arcadia"},{"location":"Boardwalk 11 Karaoke Bar and Grill","address":"10433 National Boulevard Los Angeles, ","formattedAddress":"10433 National Blvd, Los Angeles, CA 90034, USA","lat":34.0291553,"lng":-118.4116626,"zipcode":"90034","city":"Los Angeles","neighborhood":"Palms"},{"location":"The Canyon Santa Clarita","address":"24201 Valencia Blvd., #1351 Santa Clarita, ","formattedAddress":"24201 Valencia Blvd #1351, Santa Clarita, CA 91355, USA","lat":34.4147514,"lng":-118.558256,"zipcode":"91355","city":"Santa Clarita"},{"location":"Lucky Strike Lanes & Lounge","address":"6801 Hollywood Blvd. Los Angeles, ","formattedAddress":"6801 Hollywood Blvd, Los Angeles, CA 90028, USA","lat":34.1025489,"lng":-118.3401051,"zipcode":"90028","city":"Los Angeles","neighborhood":"Hollywood"},{"location":"Chadwick School","address":"The Laverty Center For The Performing Arts Palos Verdes Peninsula, ","formattedAddress":"Geoffrey Alan Laverty Center for the Performing Arts, Palos Verdes Peninsula, CA 90274, USA","lat":33.7766658,"lng":-118.3598459,"zipcode":"90274","city":"Palos Verdes Peninsula"},{"location":"Almansor Court - Lakeview Room","address":"700 South Almansor Street Alhambra, ","formattedAddress":"700 S Almansor St, Alhambra, CA 91801, USA","lat":34.0899797,"lng":-118.1160064,"zipcode":"91801","city":"Alhambra"},{"location":"Dia De Campo","address":"1238 Hermosa Avenue Hermosa Beach, ","formattedAddress":"1238 Hermosa Ave, Hermosa Beach, CA 90254, USA","lat":33.8629248,"lng":-118.3998558,"zipcode":"90254","city":"Hermosa Beach"},{"location":"Healthy Spot","address":"4718 Lincoln Blvd. Marina Del Rey, ","formattedAddress":"4718 Lincoln Blvd, Marina Del Rey, CA 90292, USA","lat":33.9804054,"lng":-118.4376945,"zipcode":"90292","city":"Marina del Rey"},{"location":"Liberty Community Plaza","address":"14181 Telegraph Road Whittier, ","formattedAddress":"14181 Telegraph Rd, Whittier, CA 90604, USA","lat":33.9287843,"lng":-118.029251,"zipcode":"90604","city":"Whittier"},{"location":"Angel City Brewery","address":"216 S. Alameda St. Los Angeles, ","formattedAddress":"216 S Alameda St, Los Angeles, CA 90012, USA","lat":34.0465361,"lng":-118.2378194,"zipcode":"90012","city":"Los Angeles","neighborhood":"Central LA"},{"location":"262 S Los Angeles St","address":"262 South Los Angeles Street Los Angeles, ","formattedAddress":"262 S Los Angeles St, Los Angeles, CA 90012, USA","lat":34.0485578,"lng":-118.2443505,"zipcode":"90012","city":"Los Angeles","neighborhood":"Central LA"},{"location":"Studio Theatre (room 108)","address":"4401 Elenda St. Culver City, ","formattedAddress":"4401 Elenda St, Culver City, CA 90230, USA","lat":34.0050326,"lng":-118.401696,"zipcode":"90230","city":"Culver City","neighborhood":"Park West"},{"location":"Japanese American Cultural & Community Center (JACCC)","address":"244 S. San Pedro St. Los Angeles, ","formattedAddress":"244 S San Pedro St, Los Angeles, CA 90012, USA","lat":34.04778,"lng":-118.2418045,"zipcode":"90012","city":"Los Angeles","neighborhood":"Central LA"},{"location":"Paradise Bar & Restaurant","address":"1800 East Broadway Long Beach, ","formattedAddress":"1800 E Broadway, Long Beach, CA 90802, USA","lat":33.7673212,"lng":-118.1695421,"zipcode":"90802","city":"Long Beach","neighborhood":"Alamitos Beach"},{"location":"MANDALA","address":"719 Broadway Santa Monica, ","formattedAddress":"719 Broadway, Santa Monica, CA 90401, USA","lat":34.0179893,"lng":-118.4903327,"zipcode":"90401","city":"Santa Monica","neighborhood":"Downtown"},{"location":"Glendora Gardens Nursery","address":"1132 South Grand Avenue Glendora, ","formattedAddress":"1132 S Grand Ave, Glendora, CA 91740, USA","lat":34.1183052,"lng":-117.8715725,"zipcode":"91740","city":"Glendora","neighborhood":"Charter Oak"},{"location":"Faithful Artisans","address":"1131 East 5th Street Los Angeles, ","formattedAddress":"1131 E 5th St, Los Angeles, CA 90013, USA","lat":34.0416912,"lng":-118.2367751,"zipcode":"90013","city":"Los Angeles","neighborhood":"Central LA"},{"location":"Unplug Meditation","address":"12401 Wilshire Blvd Los Angeles, ","formattedAddress":"12401 Wilshire Blvd, Los Angeles, CA 90025, USA","lat":34.0418857,"lng":-118.4707829,"zipcode":"90025","city":"Los Angeles","neighborhood":"Brentwood"},{"location":"TKG","address":"301 Avenue D Redondo Beach, ","formattedAddress":"301 Avenue D, Redondo Beach, CA 90277, USA","lat":33.8249048,"lng":-118.3849017,"zipcode":"90277","city":"Redondo Beach","neighborhood":"South Redondo"},{"location":"The Ann and Jerry Moss Theater--New Roads School","address":"Herb Alpert Educational Village Santa Monica, ","formattedAddress":"3131 Olympic Blvd, Santa Monica, CA 90404, USA","lat":34.0315411,"lng":-118.4615277,"zipcode":"90404","city":"Santa Monica"},{"location":"Digiland","address":"2443 N. Naomi Ave. Burbank, ","formattedAddress":"2443 N Naomi St, Burbank, CA 91504, USA","lat":34.1970586,"lng":-118.3404692,"zipcode":"91504","city":"Burbank"},{"location":"101 Dance Center","address":"3246 Cahuenga Boulevard West Los Angeles, ","formattedAddress":"3246 Cahuenga Blvd W, Los Angeles, CA 90068, USA","lat":34.1298049,"lng":-118.3486547,"zipcode":"90068","city":"Los Angeles","neighborhood":"Central LA"},{"location":"Norton Simon Museum","address":"411 W. Colorado Blvd. Pasadena, ","formattedAddress":"411 W Colorado Blvd, Pasadena, CA 91105, USA","lat":34.1462414,"lng":-118.1592383,"zipcode":"91105","city":"Pasadena","neighborhood":"North Arroyo"},{"location":"Cole's","address":"118 E. Sixth St. Los Angeles, ","formattedAddress":"118 E 6th St, Los Angeles, CA 90014, USA","lat":34.0448419,"lng":-118.2495248,"zipcode":"90014","city":"Los Angeles","neighborhood":"Downtown"},{"location":"Casa Vertigo","address":"1828 Oak St. Los Angeles, ","formattedAddress":"1828 Oak St, Los Angeles, CA 90015, USA","lat":34.0370944,"lng":-118.2771027,"zipcode":"90015","city":"Los Angeles","neighborhood":"South Los Angeles"},{"location":"W Hollywood","address":"6250 Hollywood Boulevard Los Angeles, California 90028 323-798-1300","formattedAddress":"6250 Hollywood Blvd, Los Angeles, CA 90028, USA","lat":34.1010195,"lng":-118.3254155,"zipcode":"90028","city":"Los Angeles","neighborhood":"Hollywood"},{"location":"Creamistry","address":"ALL Creamistry Locations Los Angeles, ","formattedAddress":"3510 W 8th St, Los Angeles, CA 90005, USA","lat":34.0572994,"lng":-118.3071056,"zipcode":"90005","city":"Los Angeles","neighborhood":"Central LA"},{"location":"California Heights United Methodist Church","address":"3759 Orange Avenue Long Beach, ","formattedAddress":"3759 Orange Ave, Long Beach, CA 90807, USA","lat":33.8263419,"lng":-118.1766365,"zipcode":"90807","city":"Long Beach","neighborhood":"Bixby Knolls"},{"location":"The Canyon Agoura Hills","address":"28912 Roadside Dr. Agoura Hills, ","formattedAddress":"28912 Roadside Dr, Agoura Hills, CA 91301, USA","lat":34.144004,"lng":-118.7551541,"zipcode":"91301","city":"Agoura Hills"},{"location":"Community center room 63/64","address":"8610 Van Nuys Los Angeles, ","formattedAddress":"8610 Van Nuys, Panorama City, CA 91402, USA","lat":34.2264927,"lng":-118.449476,"zipcode":"91402","city":"Los Angeles","neighborhood":"Panorama City"},{"location":"Near Downtown L.A","address":"3186 W. 8th Street Los Angeles, ","formattedAddress":"3186 W 8th St, Los Angeles, CA 90005, USA","lat":34.0575642,"lng":-118.2974136,"zipcode":"90005","city":"Los Angeles","neighborhood":"Central LA"},{"location":"Shutters on the Beach","address":"1 Pico Blvd. Santa Monica, ","formattedAddress":"1 Pico Blvd, Santa Monica, CA 90405, USA","lat":34.0070588,"lng":-118.4916721,"zipcode":"90405","city":"Santa Monica"},{"location":"Kung Pao Bistro","address":"15025 Ventura Blvd. Los Angeles, ","formattedAddress":"15025 Ventura Blvd, Sherman Oaks, CA 91403, USA","lat":34.1531279,"lng":-118.4604639,"zipcode":"91403","city":"Los Angeles","neighborhood":"Sherman Oaks"},{"location":"Beachwood Blendery","address":"247 Long Beach Blvd. Long Beach, California","formattedAddress":"247 Long Beach Blvd, Long Beach, CA 90802, USA","lat":33.7703235,"lng":-118.1896696,"zipcode":"90802","city":"Long Beach","neighborhood":"Downtown Core"},{"location":"CROWN PLAZA/FAITHFUL CENTRAL BIBLE CHURCH","address":"400 N FLORENCE AVE. INGLEWOOD CA Inglewood, ","formattedAddress":"400 W Florence Ave, Inglewood, CA 90301, USA","lat":33.9653976,"lng":-118.3622105,"zipcode":"90301","city":"Inglewood"},{"location":"Regency Valley Plaza 6","address":"6355 Bellingham Avenue Los Angeles, ","formattedAddress":"6355 Bellingham Ave, North Hollywood, CA 91606, USA","lat":34.1860787,"lng":-118.399293,"zipcode":"91606","city":"Los Angeles","neighborhood":"North Hollywood"},{"location":"Hope Community Church","address":"1429 Clark Ave. Long Beach, ","formattedAddress":"1429 Clark Ave, Long Beach, CA 90815, USA","lat":33.7862106,"lng":-118.1344307,"zipcode":"90815","city":"Long Beach","neighborhood":"Circle Area"},{"location":"The Association","address":"110 E. Sixth St. Los Angeles, ","formattedAddress":"110 E 6th St, Los Angeles, CA 90014, USA","lat":34.0449075,"lng":-118.2497522,"zipcode":"90014","city":"Los Angeles","neighborhood":"Downtown"},{"location":"7039 W Sunset Blvd","address":"7039 Sunset Boulevard Los Angeles, ","formattedAddress":"7039 Sunset Blvd, Los Angeles, CA 90028, USA","lat":34.0983859,"lng":-118.342788,"zipcode":"90028","city":"Los Angeles","neighborhood":"Hollywood"},{"location":"Vista Theatre","address":"4473 Sunset Blvd. Los Angeles, ","formattedAddress":"4473 Sunset Blvd, Los Angeles, CA 90027, USA","lat":34.0976751,"lng":-118.2863715,"zipcode":"90027","city":"Los Angeles","neighborhood":"Los Feliz"},{"location":"HaHa Comedy Club","address":"4712 Lankershim Boulevard North Hollywood, ","formattedAddress":"4712 Lankershim Blvd, Toluca Lake, CA 91602, USA","lat":34.1560826,"lng":-118.3689995,"zipcode":"91602","city":"Los Angeles","neighborhood":"Toluca Lake"},{"location":"Museum of Latin American Art (MOLAA)","address":"628 Alamitos Ave. Long Beach, ","formattedAddress":"628 Alamitos Ave, Long Beach, CA 90802, USA","lat":33.7744158,"lng":-118.1798784,"zipcode":"90802","city":"Long Beach","neighborhood":"Eastside"},{"location":"Rappcats","address":"5638 York Blvd. Los Angeles, ","formattedAddress":"5638 York Blvd, Los Angeles, CA 90042, USA","lat":34.1190085,"lng":-118.19538,"zipcode":"90042","city":"Los Angeles","neighborhood":"Eagle Rock"},{"location":"Regal Cinemas L.A. LIVE 14","address":"1000 West Olympic Boulevard Los Angeles, ","formattedAddress":"1000 W Olympic Blvd, Los Angeles, CA 90015, USA","lat":34.0457356,"lng":-118.2680272,"zipcode":"90015","city":"Los Angeles","neighborhood":"Downtown"},{"location":"Grand Long Beach Events Center","address":"4101 East Willow Street Long Beach, ","formattedAddress":"4101 E Willow St, Long Beach, CA 90815, USA","lat":33.8046346,"lng":-118.1469057,"zipcode":"90815","city":"Long Beach"},{"location":"Culver City Park","address":"9800 Jefferson Blvd. Culver City, ","formattedAddress":"9800 Jefferson Blvd, Culver City, CA 90232, USA","lat":34.0168112,"lng":-118.3858447,"zipcode":"90232","city":"Culver City"},{"location":"Nate Holden Performing Arts Center","address":"4718 W. Washington Blvd. Los Angeles, ","formattedAddress":"4718 W Washington Blvd, Los Angeles, CA 90016, USA","lat":34.0395853,"lng":-118.3420041,"zipcode":"90016","city":"Los Angeles","neighborhood":"Central LA"},{"location":"Riley Rose","address":"2131 Galleria Way Glendale, ","formattedAddress":"2131 Galleria Way, Glendale, CA 91210, USA","lat":34.1451006,"lng":-118.2591605,"zipcode":"91210","city":"Glendale","neighborhood":"Downtown"},{"location":"Electric Pony Studios","address":"439 East 58th Street Los Angeles, ","formattedAddress":"439 E 58th St, Los Angeles, CA 90011, USA","lat":33.9900905,"lng":-118.2660413,"zipcode":"90011","city":"Los Angeles","neighborhood":"South Los Angeles"},{"location":"The L.A. Hotel Downtown","address":"333 S figueroa St Los Angeles, ","formattedAddress":"333 S Figueroa St, Los Angeles, CA 90071, USA","lat":34.0550246,"lng":-118.2554539,"zipcode":"90071","city":"Los Angeles","neighborhood":"Downtown"},{"location":"CB2","address":"8000 Sunset Blvd. Los Angeles, ","formattedAddress":"8000 Sunset Blvd, Los Angeles, CA 90046, USA","lat":34.0974962,"lng":-118.3652003,"zipcode":"90046","city":"Los Angeles","neighborhood":"Hollywood"},{"location":"Westside Nannies Office","address":"8570 Wilshire Blvd Beverly Hills, ","formattedAddress":"8570 Wilshire Blvd, Beverly Hills, CA 90211, USA","lat":34.065191,"lng":-118.378182,"zipcode":"90211","city":"Beverly Hills"},{"location":"The Blank's Second Stage Theatre","address":"6500 Santa Monica Blvd, Hollywood CA, 90038 Hollywood, ","formattedAddress":"6500 Santa Monica Blvd, Los Angeles, CA 90038, USA","lat":34.0906034,"lng":-118.3311111,"zipcode":"90038","city":"Los Angeles","neighborhood":"Hollywood"},{"location":"1526 W Dogwood Ave","address":"Anaheim Anaheim, ","formattedAddress":"Anaheim, CA, USA","lat":33.8365932,"lng":-117.9143012,"city":"Anaheim"},{"location":"Metropolis & Cafe","address":"603 Arizona Avenue Santa Monica, ","formattedAddress":"603 Arizona Ave, Santa Monica, CA 90401, USA","lat":34.0195588,"lng":-118.4948614,"zipcode":"90401","city":"Santa Monica","neighborhood":"Downtown"},{"location":"Montalbán Theatre","address":"1615 Vine Street Los Angeles, California 90028 323-871-2420","formattedAddress":"1615 Vine St, Los Angeles, CA 90028, USA","lat":34.1002887,"lng":-118.3266969,"zipcode":"90028","city":"Los Angeles","neighborhood":"Central LA"},{"location":"MEET (on the corner of) Beachwood Dr. & Linforth Dr.","address":"3131 N. Beachwood Dr. Los Angeles, ","formattedAddress":"3131 N Beachwood Dr, Los Angeles, CA 90068, USA","lat":34.12703279999999,"lng":-118.3178426,"zipcode":"90068","city":"Los Angeles","neighborhood":"Central LA"},{"location":"Festival Amphitheatre","address":"12762 Main St. Garden Grove, ","formattedAddress":"12762 Main St, Maple Grove, MN 55369, USA","lat":45.09275210000001,"lng":-93.44184020000002,"zipcode":"55369","city":"Maple Grove"},{"location":"Hulun Beir","address":"55 W Green St Pasadena, ","formattedAddress":"55 W Green St, Pasadena, CA 91105, USA","lat":34.1447536,"lng":-118.1516829,"zipcode":"91105","city":"Pasadena","neighborhood":"Old Pasadena"},{"location":"5557 W. Washington Blvd","address":"5557 W. Washington Boulevard Los Angeles, ","formattedAddress":"5557 Washington Blvd, Los Angeles, CA 90016, USA","lat":34.036954,"lng":-118.3649582,"zipcode":"90016","city":"Los Angeles","neighborhood":"Central LA"},{"location":"Kabbalah Book Store Woodland Hills","address":"22311 Ventura Boulevard Woodland Hills, ","formattedAddress":"22311 Ventura Blvd, Woodland Hills, CA 91364, USA","lat":34.1696065,"lng":-118.6129842,"zipcode":"91364","city":"Los Angeles","neighborhood":"Woodland Hills"},{"location":"Corazon Performing Arts","address":"125 S. Topanga Canyon Blvd. Topanga, ","formattedAddress":"125 S Topanga Canyon Blvd, Topanga, CA 90290, USA","lat":34.0890597,"lng":-118.6037766,"zipcode":"90290","city":"Topanga"},{"location":"Evolution Dance Studio","address":"10816 Burbank Boulevard North Hollywood, ","formattedAddress":"10816 Burbank Blvd, North Hollywood, CA 91601, USA","lat":34.1718212,"lng":-118.3664418,"zipcode":"91601","city":"Los Angeles","neighborhood":"North Hollywood"},{"location":"Lululemon Melrose","address":"8532 Melrose Ave West Hollywood, ","formattedAddress":"8532 Melrose Ave, West Hollywood, CA 90069, USA","lat":34.0817139,"lng":-118.3778158,"zipcode":"90069","city":"West Hollywood","neighborhood":"Central LA"},{"location":"Griffith Park, Crystal Springs Recreation Area","address":"4730 Crystal Springs Dr Los Angeles, ","formattedAddress":"4730 Crystal Springs Dr, Los Angeles, CA 90027, USA","lat":34.1328966,"lng":-118.280288,"zipcode":"90027","city":"Los Angeles"},{"location":"Cerritos Center for the Performing Arts","address":"12700 Center Court Dr. Cerritos, ","formattedAddress":"12700 Center Ct Dr N, Cerritos, CA 90703, USA","lat":33.867418,"lng":-118.0615344,"zipcode":"90703","city":"Cerritos"},{"location":"All Saints Episcopal Church","address":"504 N. Camden Dr. Beverly Hills, ","formattedAddress":"504 N Camden Dr, Beverly Hills, CA 90210, USA","lat":34.0708629,"lng":-118.4057571,"zipcode":"90210","city":"Beverly Hills","neighborhood":"The Flats"},{"location":"Arc'teryx","address":"159 S. La Brea Ave. Los Angeles, ","formattedAddress":"159 South La Brea Ave, Los Angeles, CA 90036, USA","lat":34.0719344,"lng":-118.344359,"zipcode":"90036","city":"Los Angeles","neighborhood":"La Brea"},{"location":"Bloomingdale's Century City","address":"10250 Santa Monica Boulevard Los Angele, ","formattedAddress":"10250 Santa Monica Blvd, Los Angeles, CA 90067, USA","lat":34.0599924,"lng":-118.4200376,"zipcode":"90067","city":"Los Angeles","neighborhood":"Century City"},{"location":"Omni Los Angeles Hotel at California Plaza","address":"251 South Olive Street Los Angeles, ","formattedAddress":"251 S Olive St, Los Angeles, CA 90012, USA","lat":34.0525511,"lng":-118.2504527,"zipcode":"90012","city":"Los Angeles","neighborhood":"Downtown"},{"location":"Vertigo Event Venue","address":"400 West Glenoaks Boulevard Glendale, ","formattedAddress":"400 W Glenoaks Blvd, Glendale, CA 91202, USA","lat":34.1597207,"lng":-118.2618873,"zipcode":"91202","city":"Glendale","neighborhood":"Verdugo Viejo"},{"location":"Neighbor","address":"1031 Abbot Kinney Boulevard Los Angeles, ","formattedAddress":"1031 Abbot Kinney Blvd, Venice, CA 90291, USA","lat":33.9922739,"lng":-118.4714917,"zipcode":"90291","city":"Los Angeles","neighborhood":"Venice"},{"location":"Superba Food + Bread","address":"1900 Lincoln Blvd. Venice, ","formattedAddress":"1900 Lincoln Blvd, Venice, CA 90291, USA","lat":33.9962278,"lng":-118.4563503,"zipcode":"90291","city":"Los Angeles","neighborhood":"Venice"},{"location":"WACO Theater Center","address":"5144 Lankershim Boulevard Los Angeles, ","formattedAddress":"5144 Lankershim Blvd, Los Angeles, CA 91601, USA","lat":34.1642319,"lng":-118.3739073,"zipcode":"91601","city":"Los Angeles","neighborhood":"NoHo Arts District"},{"location":"ABCs' LA Office","address":"5405 Wilshire Blvd. Los Angeles, ","formattedAddress":"5405 Wilshire Blvd, Los Angeles, CA 90036, USA","lat":34.0626678,"lng":-118.3463821,"zipcode":"90036","city":"Los Angeles","neighborhood":"Mid-Wilshire"},{"location":"SEO Optimizers Training Course","address":"528 Arizona Ave Santa Monica, California 90401","formattedAddress":"528 Arizona Ave, Santa Monica, CA 90401, USA","lat":34.0188857,"lng":-118.494775,"zipcode":"90401","city":"Santa Monica","neighborhood":"Downtown"},{"location":"Good Life Academy","address":"18719 Calvert Street Tarzana, California 91335 818-212-8001","formattedAddress":"18719 Calvert St, Tarzana, CA 91335, USA","lat":34.182092,"lng":-118.541066,"zipcode":"91335","city":"Los Angeles","neighborhood":"Tarzana"},{"location":"Unita","address":"215 Arena St. El Segundo, ","formattedAddress":"215 Arena St, El Segundo, CA 90245, USA","lat":33.9184149,"lng":-118.4126831,"zipcode":"90245","city":"El Segundo"},{"location":"Alpha Gamma Delta","address":"728 West 28th Street Los Angeles, ","formattedAddress":"Theta Xi Fraternity, 728 W 28th St, Los Angeles, CA 90007, USA","lat":34.0272608,"lng":-118.2808462,"zipcode":"90007","city":"Los Angeles","neighborhood":"South Los Angeles"},{"location":"Encanto park","address":"777 Encanto Pkwy, Duarte, ","formattedAddress":"777 Encanto Pkwy, Duarte, CA 91010, USA","lat":34.1429106,"lng":-117.937951,"zipcode":"91010","city":"Duarte"},{"location":"Wilshire Boulevard Temple (Glazer Campus)","address":"3663 Wilshire Boulevard Los Angeles, ","formattedAddress":"3663 Wilshire Blvd, Los Angeles, CA 90010, USA","lat":34.0621177,"lng":-118.3049672,"zipcode":"90010","city":"Los Angeles","neighborhood":"Koreatown"},{"location":"Lake Balboa Park","address":"6300 Balboa Blvd. Encino, ","formattedAddress":"6300 Balboa Blvd, Encino, CA 91316, USA","lat":34.18414509999999,"lng":-118.5011019,"zipcode":"91316","city":"Los Angeles","neighborhood":"Encino"},{"location":"MOVEMENT LIFESTYLE","address":"11105 Weddington Street Los Angeles, ","formattedAddress":"11105 Weddington St, North Hollywood, CA 91601, USA","lat":34.1673877,"lng":-118.3726542,"zipcode":"91601","city":"Los Angeles","neighborhood":"North Hollywood"},{"location":"Trim Ready (Los Angeles Office)","address":"1043 S Los Angeles St Los Angeles, ","formattedAddress":"1043 S Los Angeles St, Los Angeles, CA 90015, USA","lat":34.0388063,"lng":-118.2570702,"zipcode":"90015","city":"Los Angeles","neighborhood":"Central LA"},{"location":"Spago","address":"176 N Canon Dr. Beverly Hills, ","formattedAddress":"176 N Canon Dr, Beverly Hills, CA 90210, USA","lat":34.0676468,"lng":-118.3975718,"zipcode":"90210","city":"Beverly Hills"},{"location":"The Walker Inn","address":"3612 W 6th St Los Angeles, ","formattedAddress":"3612 W 6th St, Los Angeles, CA 90020, USA","lat":34.0633702,"lng":-118.3006681,"zipcode":"90020","city":"Los Angeles","neighborhood":"Central LA"},{"location":"Santa Monica Main Library","address":"Multi-Purpose Room Santa Monica, "},{"location":"La Mirada Christian Church","address":"12104 Los Coyotes Avenue La Mirada, ","formattedAddress":"12104 Los Coyotes Ave, La Mirada, CA 90638, USA","lat":33.9203003,"lng":-118.0078605,"zipcode":"90638","city":"La Mirada","neighborhood":"East Whitter"},{"location":"Los Angeles Trade Technical College","address":"400 W. Washington Blvd. Los Angeles, ","formattedAddress":"MH, 400 W Washington Blvd, Los Angeles, CA 90015, USA","lat":34.0325515,"lng":-118.2697468,"zipcode":"90015","city":"Los Angeles","neighborhood":"South Los Angeles"},{"location":"Skateland","address":"18140 Parthenia Street Northridge, ","formattedAddress":"18140 Parthenia St, Northridge, CA 91325, USA","lat":34.2283227,"lng":-118.5286331,"zipcode":"91325","city":"Los Angeles","neighborhood":"Northridge"},{"location":"John H. Mitchell Theater","address":"The Paley Center for Media Beverly Hills, ","formattedAddress":"465 N Beverly Dr, Beverly Hills, CA 90210, USA","lat":34.070926,"lng":-118.403387,"zipcode":"90210","city":"Beverly Hills"},{"location":"The Moroccan Lounge","address":"901 E. First St. Los Angeles, ","formattedAddress":"901 E 1st St, Los Angeles, CA 90012, USA","lat":34.0487434,"lng":-118.2336734,"zipcode":"90012","city":"Los Angeles","neighborhood":"Central LA"},{"location":"1144 Queen Anne Pl","address":"Apt. 1 Los Angeles, ","formattedAddress":"548 Kelton Ave, Los Angeles, CA 90024, USA","lat":34.067073,"lng":-118.453136,"zipcode":"90024","city":"Los Angeles","neighborhood":"Westwood"},{"location":"TVI Actors Studio","address":"13425 Ventura Boulevard Los Angeles, ","formattedAddress":"13425 Ventura Blvd, Sherman Oaks, CA 91423, USA","lat":34.1473594,"lng":-118.4257875,"zipcode":"91423","city":"Los Angeles","neighborhood":"Sherman Oaks"},{"location":"USC Suzanne Dworak-Peck School of Social Work - Hamovitch Room - Montgomery Ross Fisher (MRF) Building  (Livestream/Webcast Available)","address":"669 West 34th Street Los Angeles, ","formattedAddress":"Montgomery Ross Fisher Building, 669 W 34th St, Los Angeles, CA 90089, USA","lat":34.022333,"lng":-118.2825434,"zipcode":"90089","city":"Los Angeles","neighborhood":"South Los Angeles"},{"location":"Westwood Branch Library","address":"1246 Glendon Ave. Westwood, ","formattedAddress":"1246 Glendon Ave, Los Angeles, CA 90024, USA","lat":34.057949,"lng":-118.4416848,"zipcode":"90024","city":"Los Angeles","neighborhood":"Westwood"},{"location":"Joan Palevsky Center","address":"281 S Figueroa Street Los Angeles, California 90012","formattedAddress":"281 S Figueroa St, Los Angeles, CA 90012, USA","lat":34.0560828,"lng":-118.2539542,"zipcode":"90012","city":"Los Angeles","neighborhood":"Downtown"},{"location":"Idle Hour","address":"4824 Vineland Ave. North Hollywood, ","formattedAddress":"4824 Vineland Ave, North Hollywood, CA 91601, USA","lat":34.15837070000001,"lng":-118.3702331,"zipcode":"91601","city":"Los Angeles","neighborhood":"North Hollywood"},{"location":"Hilton San Antonio Airport","address":"611 NW Loop 410 San Antonio, Texas 78216 650-268-9744","formattedAddress":"611 NW Loop 410, San Antonio, TX 78216, USA","lat":29.5215151,"lng":-98.5025003,"zipcode":"78216","city":"San Antonio","neighborhood":"North Central"},{"location":"The Church on Ocean Park","address":"235 Hill St, Santa Monica, ","formattedAddress":"235 Hill St, Santa Monica, CA 90405, USA","lat":34.0017064,"lng":-118.4819247,"zipcode":"90405","city":"Santa Monica","neighborhood":"Ocean Park"},{"location":"Christina Joseph","address":"Meetings International PTE LTD. 28 Maxwell Road, #03-05 Red Dot Traffic, Singapore-069120 Singapore, Singapore 069120 800-101-2526","formattedAddress":"28 Maxwell Rd, #02-16 red dot traffic, Singapore 069120","lat":1.278157,"lng":103.845766,"zipcode":"069120"},{"location":"Westside Pavilion","address":"Community Room B (near Landmark Theaters side) 10800 W. Pico Blvd. Los Angeles, CA, 90064 Los Angeles, ","formattedAddress":"10850 W Pico Blvd, Los Angeles, CA 90064, USA","lat":34.039635,"lng":-118.428945,"zipcode":"90064","city":"Los Angeles","neighborhood":"West Los Angeles"},{"location":"Hilton Long Beach","address":"701 W. Ocean Blvd. Long Beach, ","formattedAddress":"701 W Ocean Blvd, Long Beach, CA 90831, USA","lat":33.7680256,"lng":-118.2013684,"zipcode":"90831","city":"Long Beach","neighborhood":"West Gateway"},{"location":"The Maya Salon","address":"1032 Mission Street South Pasadena, ","formattedAddress":"1032 Mission St, South Pasadena, CA 91030, USA","lat":34.1159323,"lng":-118.1556531,"zipcode":"91030","city":"South Pasadena"},{"location":"The Pacific","address":"850 Ocean Boulevard Long Beach, ","formattedAddress":"850 E Ocean Blvd, Long Beach, CA 90802, USA","lat":33.7657162,"lng":-118.1820905,"zipcode":"90802","city":"Long Beach","neighborhood":"Alamitos Beach"},{"location":"Rosebud Coffee/Chirp","address":"2302 E Colorado Blvd. Pasadena, ","formattedAddress":"2302 E Colorado Blvd, Pasadena, CA 91107, USA","lat":34.1458926,"lng":-118.1030592,"zipcode":"91107","city":"Pasadena","neighborhood":"Lamanda Park"},{"location":"Metro","address":"1 Gateway Plaza Los Angeles, ","formattedAddress":"1 Gateway Plaza, Los Angeles, CA 90012, USA","lat":34.0563947,"lng":-118.2329093,"zipcode":"90012","city":"Los Angeles","neighborhood":"Central LA"},{"location":"Boutique and Brow Bar","address":"511 S Myrtle Ave Monrovia, ","formattedAddress":"511 S Myrtle Ave, Monrovia, CA 91016, USA","lat":34.146522,"lng":-118.001293,"zipcode":"91016","city":"Monrovia"},{"location":"Getty Center Museum","address":"1200 Getty Center Dr Los Angeles, ","formattedAddress":"West Pavilion at The Getty Center, 1200 Getty Center Dr, Los Angeles, CA 90049, USA","lat":34.0764496,"lng":-118.473884,"zipcode":"90049","city":"Los Angeles","neighborhood":"Brentwood"},{"location":"The MLS™ Training Center","address":"8350 Wilshire Boulevard Beverly Hills, ","formattedAddress":"8350 Wilshire Blvd, Beverly Hills, CA 90211, USA","lat":34.0641471,"lng":-118.3733712,"zipcode":"90211","city":"Beverly Hills"},{"location":"Training Center - Le Mieux Showroom","address":"760 East Walnut Street Pasadena, ","formattedAddress":"760 E Walnut St, Pasadena, CA 91101, USA","lat":34.149253,"lng":-118.134745,"zipcode":"91101","city":"Pasadena"},{"location":"Carbon Five","address":"525 Colorado Avenue Santa Monica, ","formattedAddress":"525 Colorado Ave, Santa Monica, CA 90401, USA","lat":34.0152396,"lng":-118.4905387,"zipcode":"90401","city":"Santa Monica","neighborhood":"Downtown"},{"location":"ImpactHub LA","address":"830 Traction Avenue Los Angeles, ","formattedAddress":"830 Traction Ave, Los Angeles, CA 90013, USA","lat":34.0445575,"lng":-118.2353273,"zipcode":"90013","city":"Los Angeles","neighborhood":"Central LA"},{"location":"Hologram USA Theater","address":"6656 Hollywood Boulevard Los Angeles, ","formattedAddress":"6656 Hollywood Blvd, Los Angeles, CA 90028, USA","lat":34.10133709999999,"lng":-118.3353984,"zipcode":"90028","city":"Los Angeles","neighborhood":"Hollywood"},{"location":"Silicon Valley Bank’s corporate Los Angeles office","address":"1901 Main Street Santa Monica, California 90405","formattedAddress":"1901 Main St, Santa Monica, CA 90405, USA","lat":34.0079446,"lng":-118.4893211,"zipcode":"90405","city":"Santa Monica","neighborhood":"Ocean Park"},{"location":"The Lyric Hyperion","address":"2106 Hyperion Ave Los Angeles, ","formattedAddress":"Los Angeles, CA 90026, USA","lat":34.0988601,"lng":-118.273745,"zipcode":"90026","city":"Los Angeles","neighborhood":"Central LA"},{"location":"Greenbar Distillery","address":"2459 East 8th Street Los Angeles, ","formattedAddress":"2459 E 8th St, Los Angeles, CA 90021, USA","lat":34.02986,"lng":-118.228132,"zipcode":"90021","city":"Los Angeles","neighborhood":"Downtown"},{"location":"Beach House","address":"1300 The Strand Hermosa Beach, ","formattedAddress":"1300 The Strand, Hermosa Beach, CA 90254, USA","lat":33.8630546,"lng":-118.401888,"zipcode":"90254","city":"Hermosa Beach"},{"location":"Bareburger Organic","address":"2732 Main Street Santa Monica, ","formattedAddress":"2732 Main St, Santa Monica, CA 90405, USA","lat":34.000179,"lng":-118.482088,"zipcode":"90405","city":"Santa Monica","neighborhood":"Ocean Park"},{"location":"Vibrant Living Wellness Center","address":"144 W. Sierra Madre Blvd Sierra Madre, ","formattedAddress":"144 W Sierra Madre Blvd, Sierra Madre, CA 91024, USA","lat":34.1616268,"lng":-118.0557214,"zipcode":"91024","city":"Sierra Madre"},{"location":"Manhattan Country Club","address":"1330 Parkview Avenue Manhattan Beach, California 90266 310-546-5656","formattedAddress":"1330 Parkview Ave, Manhattan Beach, CA 90266, USA","lat":33.9000754,"lng":-118.3900792,"zipcode":"90266","city":"Manhattan Beach"},{"location":"Centerfield","address":"12130 Millennium Drive Los Angeles, ","formattedAddress":"12130 Millennium Dr, Los Angeles, CA 90094, USA","lat":33.97998949999999,"lng":-118.4063002,"zipcode":"90094","city":"Los Angeles","neighborhood":"Westchester"},{"location":"Elevate Fitness Complex","address":"3000 Dolores st los angeles, ca 90065 424-394-8413","formattedAddress":"3000 Dolores St, Los Angeles, CA 90065, USA","lat":34.1220009,"lng":-118.2522459,"zipcode":"90065","city":"Los Angeles"},{"location":"Crowne plaza","address":"Sheikh Zayed Road dubai, dubai 90195 202-754-8501","formattedAddress":"202 Sheikh Zayed Rd - Dubai - United Arab Emirates","lat":25.1944612,"lng":55.26167659999999,"city":"Dubai","neighborhood":"Al Wasl"},{"location":"Private Adult Club","address":"Wilmington Wilmington, Ca 90744","formattedAddress":"N Wilmington Blvd, Carson, CA 90745, USA","lat":33.78505,"lng":-118.2746344,"zipcode":"90745","city":"Carson","neighborhood":"Harbor"},{"location":"Cavern Club Celebrity Theater  Casita Del Campo Restaurant","address":"1920 Hyperion Ave Silverlake, ","formattedAddress":"1920 Hyperion Ave, Los Angeles, CA 90027, USA","lat":34.097457,"lng":-118.274991,"zipcode":"90027","city":"Los Angeles","neighborhood":"Central LA"},{"location":"Cross Campus, Santa Monica","address":"929 Colorado Ave Santa Monica, ","formattedAddress":"929 Colorado Ave, Santa Monica, CA 90401, USA","lat":34.0185003,"lng":-118.4867555,"zipcode":"90401","city":"Santa Monica","neighborhood":"Downtown"},{"location":"Rightpoint Santa Monica","address":"1453 3rd Street Promenade Santa Monica, California 90401","formattedAddress":"1453 3rd Street Promenade, Santa Monica, CA 90401, USA","lat":34.0149333,"lng":-118.4945764,"zipcode":"90401","city":"Santa Monica","neighborhood":"Downtown"},{"location":"Bob Hope Patriotic Hall","address":"1816 South Figueroa Street Los Angeles, ","formattedAddress":"1816 S Figueroa St, Los Angeles, CA 90015, USA","lat":34.0352776,"lng":-118.2710078,"zipcode":"90015","city":"Los Angeles","neighborhood":"South Los Angeles"},{"location":"This is an Online Event","address":"Anaheim Anaheim, California 92805","formattedAddress":"Anaheim, CA 92805, USA","lat":33.8276052,"lng":-117.9073244,"zipcode":"92805","city":"Anaheim"},{"location":"Buona Sera Ristorante","address":"247 Avenida Del Norte Redondo Beach, ","formattedAddress":"247 Avenida Del Norte, Redondo Beach, CA 90277, USA","lat":33.8184084,"lng":-118.386877,"zipcode":"90277","city":"Redondo Beach","neighborhood":"South Redondo"},{"location":"making360","address":"2137 Glyndon Ave Venice, ","formattedAddress":"2137 Glyndon Ave, Venice, CA 90291, USA","lat":33.9986448,"lng":-118.451642,"zipcode":"90291","city":"Los Angeles","neighborhood":"Venice"},{"location":"11:30pm","address":"3970 Artesia Avenue Fullerton, ","formattedAddress":"3970 Artesia Ave, Fullerton, CA 92833, USA","lat":33.8732378,"lng":-117.9793192,"zipcode":"92833","city":"Fullerton"},{"location":"Venice","address":"813 Venezia Ave Los Angeles, ","formattedAddress":"813 Venezia Ave, Venice, CA 90291, USA","lat":33.992648,"lng":-118.457802,"zipcode":"90291","city":"Los Angeles","neighborhood":"Venice"},{"location":"The Valley Economic Alliance","address":"5121 Van Nuys Boulevard Sherman Oaks, ","formattedAddress":"5121 Van Nuys Blvd, Sherman Oaks, CA 91403, USA","lat":34.1637489,"lng":-118.4490607,"zipcode":"91403","city":"Los Angeles","neighborhood":"Sherman Oaks"},{"location":"Oath","address":"13031 W Jefferson Blvd. Los Angeles, ","formattedAddress":"13031 W Jefferson Blvd, Los Angeles, CA 90066, USA","lat":33.9756883,"lng":-118.4263553,"zipcode":"90066","city":"Los Angeles"},{"location":"Canal Club","address":"2025 Pacific Ave. Venice, ","formattedAddress":"2025 Pacific Ave, Venice, CA 90291, USA","lat":33.9851076,"lng":-118.4704084,"zipcode":"90291","city":"Los Angeles","neighborhood":"Venice"},{"location":"Kyocera Document Solutions West - Sherman Oaks","address":"15301 Ventura Blvd., Rotunda Area Sherman Oaks, ","formattedAddress":"15301 Ventura Blvd, Sherman Oaks, CA 91403, USA","lat":34.1542778,"lng":-118.4670778,"zipcode":"91403","city":"Los Angeles","neighborhood":"Sherman Oaks"},{"location":"Los Angeles Southwest College","address":"1600 W. Imperial Highway Los Angeles, ","formattedAddress":"1600 W Imperial Hwy, Los Angeles, CA 90047, USA","lat":33.9307202,"lng":-118.3062636,"zipcode":"90047","city":"Los Angeles","neighborhood":"South Los Angeles"},{"location":"XLanes LA","address":"333 Alameda St #300 Los Angeles, ","formattedAddress":"333 Alameda St #300, Los Angeles, CA 90013, USA","lat":34.0445458,"lng":-118.2384537,"zipcode":"90013","city":"Los Angeles","neighborhood":"Central LA"},{"location":"Arena 1 Gallery","address":"3024 Airport Ave. Santa Monica, ","formattedAddress":"3024 Airport Ave, Santa Monica, CA 90405, USA","lat":34.0142308,"lng":-118.4494514,"zipcode":"90405","city":"Santa Monica","neighborhood":"Sunset Park"},{"location":"Taix French Country Cuisine","address":"1911 Sunset Boulevard Los Angeles, ","formattedAddress":"1911 Sunset Blvd, Los Angeles, CA 90026, USA","lat":34.0782765,"lng":-118.2614713,"zipcode":"90026","city":"Los Angeles","neighborhood":"Echo Park"},{"location":"Burns & McDonnell Engineering","address":"140 S State College Blvd Brea, ","formattedAddress":"140 S State College Blvd, Brea, CA 92821, USA","lat":33.9196891,"lng":-117.881987,"zipcode":"92821","city":"Brea"},{"location":"Herman Miller Studio","address":"3641 Holdrege Avenue #100 Los Angeles, ","formattedAddress":"3641 Holdrege Ave #100, Los Angeles, CA 90016, USA","lat":34.0197935,"lng":-118.3785909,"zipcode":"90016","city":"Los Angeles","neighborhood":"South Los Angeles"},{"location":"Elevate Lounge at Takami","address":"811 Wilshire Boulevard Los Angeles, ","formattedAddress":"811 Wilshire Blvd, Los Angeles, CA 90017, USA","lat":34.0497842,"lng":-118.2582317,"zipcode":"90017","city":"Los Angeles","neighborhood":"Downtown"},{"location":"Glendale","address":"2834 Macon St Los Angeles, ","formattedAddress":"2834 Macon St, Los Angeles, CA 90065, USA","lat":34.1012961,"lng":-118.2336694,"zipcode":"90065","city":"Los Angeles","neighborhood":"Northeast Los Angeles"},{"location":"Michael's on Naples/Chianina Steakhouse","address":"Naples Island long beach, ","formattedAddress":"Naples, Long Beach, CA 90803, USA","lat":33.7568169,"lng":-118.123015,"zipcode":"90803","city":"Long Beach","neighborhood":"Naples"},{"location":"Intelligentsia Coffee Silver Lake Coffeebar","address":"3922 Sunset Boulevard Los Angeles, ","formattedAddress":"3922 Sunset Blvd, Los Angeles, CA 90029, USA","lat":34.0921238,"lng":-118.2803654,"zipcode":"90029","city":"Los Angeles","neighborhood":"Silver Lake"},{"location":"Westwood Public Library","address":"1246 Glendon Avenue Los Angeles, ","formattedAddress":"1246 Glendon Ave, Los Angeles, CA 90024, USA","lat":34.057949,"lng":-118.4416848,"zipcode":"90024","city":"Los Angeles","neighborhood":"Westwood"},{"location":"MeUndies","address":"3650 Holdrege Ave Los Angeles, ","formattedAddress":"3650 Holdrege Ave, Los Angeles, CA 90016, USA","lat":34.0194774,"lng":-118.3777981,"zipcode":"90016","city":"Los Angeles","neighborhood":"South Los Angeles"},{"location":"Private Venue","address":"1210 Fourth Street Santa Monica, ","formattedAddress":"1210 4th St, Santa Monica, CA 90401, USA","lat":34.0186332,"lng":-118.4980129,"zipcode":"90401","city":"Santa Monica","neighborhood":"Downtown"},{"location":"Kurt True Value Hardware","address":"2404 Artesia Boulevard Redondo Beach, ","formattedAddress":"2404 Artesia Blvd, Redondo Beach, CA 90278, USA","lat":33.8725349,"lng":-118.3680507,"zipcode":"90278","city":"Redondo Beach","neighborhood":"North Redondo"},{"location":"3210 SGMH","address":"800 N State College Blvd Fullerton, ","formattedAddress":"800 State College Boulevard, Fullerton, CA 92831, USA","lat":33.8779111,"lng":-117.8901066,"zipcode":"92831","city":"Fullerton"},{"location":"The Local Peasant","address":"22901 Ventura Blvd. Woodland Hills, ","formattedAddress":"22901 Ventura Blvd, Woodland Hills, CA 91364, USA","lat":34.1657209,"lng":-118.6253058,"zipcode":"91364","city":"Los Angeles","neighborhood":"Woodland Hills"},{"location":"UCLA Public Affairs Building","address":"337 Charles E Young Dr E Los Angeles, ","formattedAddress":"337 Charles E Young Dr E, Los Angeles, CA 90095, USA","lat":34.0740364,"lng":-118.4390674,"zipcode":"90095","city":"Los Angeles","neighborhood":"Westwood"},{"location":"Cellar Hollywood","address":"1643 North Cahuenga Boulevard Los Angeles, ","formattedAddress":"1643 N Cahuenga Blvd, Los Angeles, CA 90028, USA","lat":34.1010211,"lng":-118.3298596,"zipcode":"90028","city":"Los Angeles","neighborhood":"Central LA"},{"location":"1550 Rory Ln","address":"1550 Rory Lane Simi Valley, ","formattedAddress":"1550 Rory Ln, Simi Valley, CA 93063, USA","lat":34.2678384,"lng":-118.6732646,"zipcode":"93063","city":"Simi Valley"},{"location":"Westside Tavern","address":"10850 W. Pico Blvd. Los Angeles, ","formattedAddress":"10850 W Pico Blvd, Los Angeles, CA 90064, USA","lat":34.0396352,"lng":-118.4289445,"zipcode":"90064","city":"Los Angeles","neighborhood":"West Los Angeles"},{"location":"Carson Community Center","address":"801 E. Carson St. Carson, ","formattedAddress":"801 E Carson St, Carson, CA 90745, USA","lat":33.8328018,"lng":-118.2612816,"zipcode":"90745","city":"Carson"},{"location":"The Peninsula Beverly Hills","address":"9882 S. Santa Monica Blvd. Beverly Hills, ","formattedAddress":"9882 S Santa Monica Blvd, Beverly Hills, CA 90212, USA","lat":34.0657248,"lng":-118.4106882,"zipcode":"90212","city":"Beverly Hills"},{"location":"Dubai","address":"Dubai Dubai, Dubai 93951 714-361-9616","formattedAddress":"Injaz Dubai Properties Group - Dubai - United Arab Emirates","lat":25.1039011,"lng":55.167713,"city":"Dubai","neighborhood":"Al Sufouh"},{"location":"Just Float","address":"76 N. Hudson Ave., #120 Pasadena, ","formattedAddress":"76 N Hudson Ave #120, Pasadena, CA 91101, USA","lat":34.147326,"lng":-118.1334817,"zipcode":"91101","city":"Pasadena"},{"location":"Fullerton Community Center","address":"Classroom 2 Fullerton, ","formattedAddress":"Education Classroom Building, Fullerton, CA 92831, USA","lat":33.8812966,"lng":-117.884348,"zipcode":"92831","city":"Fullerton"},{"location":"Las Perlas","address":"107 E. Sixth St. Los Angeles, ","formattedAddress":"107 E 6th St, Los Angeles, CA 90014, USA","lat":34.0450811,"lng":-118.2495339,"zipcode":"90014","city":"Los Angeles","neighborhood":"Downtown"},{"location":"The Belamar Hotel","address":"3501 N. Sepulveda Blvd. Manhattan Beach, ","formattedAddress":"3501 N Sepulveda Blvd, Manhattan Beach, CA 90266, USA","lat":33.9006656,"lng":-118.3966977,"zipcode":"90266","city":"Manhattan Beach"},{"location":"9535 California Ave","address":"9535 California Avenue South Gate, ","formattedAddress":"9535 California Ave, South Gate, CA 90280, USA","lat":33.9481847,"lng":-118.2073142,"zipcode":"90280","city":"South Gate"},{"location":"Hub101","address":"31416 Agoura Road Westlake Village, ","formattedAddress":"31416 Agoura Rd, Westlake Village, CA 91361, USA","lat":34.145083,"lng":-118.8055516,"zipcode":"91361","city":"Westlake Village"},{"location":"The LINE Los Angeles","address":"3515 Wilshire Boulevard Los Angeles, ","formattedAddress":"3515 Wilshire Blvd, Los Angeles, CA 90010, USA","lat":34.0620711,"lng":-118.3010331,"zipcode":"90010","city":"Los Angeles","neighborhood":"Koreatown"},{"location":"2025 E 4th St","address":"2025 East 4th Street Long Beach, ","formattedAddress":"2025 E 4th St, Long Beach, CA 90814, USA","lat":33.77192369999999,"lng":-118.1669997,"zipcode":"90814","city":"Long Beach","neighborhood":"Eastside"},{"location":"The Avalon","address":"1735 Vine Street Hollywood, ","formattedAddress":"1735 Vine St, Los Angeles, CA 90028, USA","lat":34.1027186,"lng":-118.3271694,"zipcode":"90028","city":"Los Angeles","neighborhood":"Central LA"},{"location":"Le Petit Paris (DTLA)","address":"418 South Spring Street Los Angeles, ","formattedAddress":"418 S Spring St, Los Angeles, CA 90013, USA","lat":34.0482422,"lng":-118.2486874,"zipcode":"90013","city":"Los Angeles","neighborhood":"Downtown"},{"location":"Tarot Society","address":"5152 La Vista Court Los Angeles, ","formattedAddress":"5152 La Vista Ct, Los Angeles, CA 90004, USA","lat":34.0820019,"lng":-118.3154238,"zipcode":"90004","city":"Los Angeles","neighborhood":"Central LA"},{"location":"Four Seasons Hotel Los Angeles at Beverly Hills","address":"300 S. Doheny Dr. Los Angeles, ","formattedAddress":"300 S Doheny Dr, Los Angeles, CA 90048, USA","lat":34.0729547,"lng":-118.3892059,"zipcode":"90048","city":"Los Angeles","neighborhood":"Central LA"},{"location":"Cost Plus World Market","address":"6333 West 3rd Street Los Angeles, California 90036 323-935-5530","formattedAddress":"6333 W 3rd St, Los Angeles, CA 90036, USA","lat":34.0722405,"lng":-118.360184,"zipcode":"90036","city":"Los Angeles","neighborhood":"Central LA"},{"location":"Basement of NoHo / Penthouse of Noho","address":"5259 Lankershim Boulevard Los Angeles, ","formattedAddress":"5259 Lankershim Blvd, North Hollywood, CA 91601, USA","lat":34.1663997,"lng":-118.3759124,"zipcode":"91601","city":"Los Angeles","neighborhood":"North Hollywood"},{"location":"FIG Restaurant at Fairmont Miramar Hotel & Bungalows","address":"101 Wilshire Boulevard Santa Monica, California 90401 310-319-3111","formattedAddress":"101 Wilshire Blvd, Santa Monica, CA 90401, USA","lat":34.017845,"lng":-118.5014962,"zipcode":"90401","city":"Santa Monica","neighborhood":"Wilshire Montana"},{"location":"The Federal Bar 5303 Lankershim Blvd.","address":"North Hollywood North Hollywood, ","formattedAddress":"North Hollywood, Los Angeles, CA, USA","lat":34.187044,"lng":-118.3812562,"city":"Los Angeles","neighborhood":"North Hollywood"},{"location":"QC's 20/20","address":"901 Via San Clemente Montebello, ","formattedAddress":"901 Via San Clemente, Montebello, CA 90640, USA","lat":34.0276095,"lng":-118.1324902,"zipcode":"90640","city":"Montebello","neighborhood":"South Montebello"},{"location":"Copper Still","address":"4485 Beverly Boulevard Los Angeles, ","formattedAddress":"4485 Beverly Blvd, Los Angeles, CA 90004, USA","lat":34.076398,"lng":-118.3065653,"zipcode":"90004","city":"Los Angeles","neighborhood":"Hollywood"},{"location":"CTRL Collective - Playa Vista","address":"12575 Beatrice St. Los Angeles, California 90066 310-301-0003","formattedAddress":"12575 Beatrice St, Los Angeles, CA 90066, USA","lat":33.9807174,"lng":-118.4155984,"zipcode":"90066","city":"Los Angeles"},{"location":"Kinetic Center","address":"21355 Pacific Coast Highway Malibu, ","formattedAddress":"21355 Pacific Coast Hwy, Malibu, CA 90265, USA","lat":34.03786300000001,"lng":-118.6399087,"zipcode":"90265","city":"Malibu","neighborhood":"Eastern Malibu"},{"location":"California State University, Long Beach Theater","address":"Long Beach Long Beach, ","formattedAddress":"Long Beach, CA, USA","lat":33.7700504,"lng":-118.1937395,"city":"Long Beach"},{"location":"3801 Highland Ave","address":"Manhattan Beach Manhattan Beach, ","formattedAddress":"Manhattan Beach, CA, USA","lat":33.8847361,"lng":-118.4109089,"city":"Manhattan Beach"},{"location":"Downtown Coworking Space","address":"527 West 7th St Los Angeles, ","formattedAddress":"527 7th St, Los Angeles, CA 90017, USA","lat":34.0472678,"lng":-118.2560909,"zipcode":"90017","city":"Los Angeles","neighborhood":"Central LA"},{"location":"S-Café (Building S - Cafeteria)","address":"Northrop Grumman Aerospace Systems Redondo Beach, ","formattedAddress":"1 Space Park Blvd, Redondo Beach, CA 90278, USA","lat":33.8919061,"lng":-118.3732839,"zipcode":"90278","city":"Redondo Beach","neighborhood":"North Redondo"},{"location":"Barlow Respiratory Hospital","address":"2000 Stadium WayWilliams Hall Los Angeles, ","formattedAddress":"2000 Stadium Way, Los Angeles, CA 90026, USA","lat":34.0757094,"lng":-118.2481853,"zipcode":"90026","city":"Los Angeles","neighborhood":"Echo Park"},{"location":"Keller Williams Palos Verdes","address":"550 Deep Valley Drive, Suite 383 Rolling Hills Estates, California 90274","formattedAddress":"550 Deep Valley Dr #383, Rolling Hills Estates, CA 90274, USA","lat":33.7721263,"lng":-118.3733576,"zipcode":"90274","city":"Rolling Hills Estates"},{"location":"Altadena Town & Country Club","address":"2290 Country Club Drive Altadena, ","formattedAddress":"2290 Country Club Dr, Altadena, CA 91001, USA","lat":34.1850391,"lng":-118.1217462,"zipcode":"91001","city":"Altadena"},{"location":"Sinai Temple","address":"10400 Wilshire Blvd. Los Angeles, California 90024 310-474-1518","formattedAddress":"10400 Wilshire Blvd, Los Angeles, CA 90024, USA","lat":34.0664918,"lng":-118.4297915,"zipcode":"90024","city":"Los Angeles","neighborhood":"Westwood"},{"location":"Cinematic Pictures Group","address":"6801 Hollywood Boulevard Los Angeles, ","formattedAddress":"6801 Hollywood Blvd, Los Angeles, CA 90028, USA","lat":34.1025489,"lng":-118.3401051,"zipcode":"90028","city":"Los Angeles","neighborhood":"Hollywood"},{"location":"Disney's Grand Californian Hotel & Spa","address":"1600 Disneyland Drive Anaheim, California 92802 714-635-2300","formattedAddress":"1600 Disneyland Dr, Anaheim, CA 92802, USA","lat":33.8079292,"lng":-117.9222359,"zipcode":"92802","city":"Anaheim","neighborhood":"Anaheim Resort"},{"location":"El Portal","address":"695 E. Green St. Pasadena, ","formattedAddress":"695 E Green St, Pasadena, CA 91101, USA","lat":34.1446212,"lng":-118.1359413,"zipcode":"91101","city":"Pasadena"},{"location":"Torrance Marriott","address":"3635 Fashion Way Torrance, ","formattedAddress":"3635 Fashion Way, Torrance, CA 90503, USA","lat":33.8358529,"lng":-118.350556,"zipcode":"90503","city":"Torrance"},{"location":"Don the Beachcomber","address":"16278 Pacific Coast Highway Huntington Beach, ","formattedAddress":"16278 Pacific Coast Hwy, Huntington Beach, CA 92649, USA","lat":33.725497,"lng":-118.0790352,"zipcode":"92649","city":"Huntington Beach"},{"location":"Hollywood Property Owners Alliance","address":"6562 Hollywood Blvd. Hollywood, ","formattedAddress":"6562 Hollywood Blvd, Los Angeles, CA 90028, USA","lat":34.1012961,"lng":-118.3331656,"zipcode":"90028","city":"Los Angeles","neighborhood":"Hollywood"},{"location":"Pico Rivera Golf Course","address":"3260 Fairway Drive Pico Rivera, ","formattedAddress":"3260 Fairway Dr, Pico Rivera, CA 90660, USA","lat":34.0187071,"lng":-118.0592226,"zipcode":"90660","city":"Pico Rivera","neighborhood":"El Rancho"},{"location":"Gensler","address":"500 S. Figueroa St. Los Angeles, ","formattedAddress":"500 S Figueroa St, Los Angeles, CA 90071, USA","lat":34.0511332,"lng":-118.2574607,"zipcode":"90071","city":"Los Angeles","neighborhood":"Downtown"},{"location":"11301 W Olympic Blvd","address":"11301 West Olympic Boulevard Los Angeles, ","formattedAddress":"11301 Olympic Blvd, Los Angeles, CA 90064, USA","lat":34.038395,"lng":-118.44204,"zipcode":"90064","city":"Los Angeles","neighborhood":"Sawtelle"},{"location":"Hitman Coffee Shop","address":"659 South La Brea Avenue Los Angeles, ","formattedAddress":"659 South La Brea Ave, Los Angeles, CA 90036, USA","lat":34.0631879,"lng":-118.34435,"zipcode":"90036","city":"Los Angeles","neighborhood":"Mid-Wilshire"},{"location":"UCLA Anderson School of Management","address":"110 Westwood Plaza Los Angeles, ","formattedAddress":"Parking Structure 5, 110 Westwood Plaza, Los Angeles, CA 90077, USA","lat":34.0739537,"lng":-118.4430523,"zipcode":"90077","city":"Los Angeles","neighborhood":"Westwood"},{"location":"1251 S Beverly Glen Blvd","address":"1251 South Beverly Glen Boulevard Los Angeles, ","formattedAddress":"1251 S Beverly Glen Blvd, Los Angeles, CA 90024, USA","lat":34.0652759,"lng":-118.4278502,"zipcode":"90024","city":"Los Angeles","neighborhood":"Westwood"},{"location":"James Bridges Theater","address":"1409 Melnitz Hall, UCLA School of Theater, Film and Television Westwood, ","formattedAddress":"225 Charles E Young Dr E, Los Angeles, CA 90095, USA","lat":34.0764923,"lng":-118.4399493,"zipcode":"90095","city":"Los Angeles","neighborhood":"Westwood"},{"location":"Nickerson Gardens Boys & Girls Club","address":"11251 Compton Ave. LOS ANGELES, California 90059","formattedAddress":"11251 Compton Ave, Los Angeles, CA 90059, USA","lat":33.9321782,"lng":-118.2465845,"zipcode":"90059","city":"Los Angeles","neighborhood":"South Los Angeles"},{"location":"City Club Los Angeles","address":"555 S. Flower St., 51st Floor Los Angeles, ","formattedAddress":"555 S Flower St, Los Angeles, CA 90017, USA","lat":34.0506388,"lng":-118.2575747,"zipcode":"90017","city":"Los Angeles","neighborhood":"Central LA"},{"location":"Flash Monkey Studios","address":"335 West 31st Street Los Angeles, ","formattedAddress":"335 W 31st St, Los Angeles, CA 90007, USA","lat":34.0235624,"lng":-118.2757286,"zipcode":"90007","city":"Los Angeles","neighborhood":"South Los Angeles"},{"location":"Loyola Marymount University, Mayer Theater","address":"1 LMU Drive Los Angeles, ","formattedAddress":"1 Loyola Marymount University Dr, Los Angeles, CA 90045, USA","lat":33.9708101,"lng":-118.4193224,"zipcode":"90045","city":"Los Angeles","neighborhood":"Westchester"},{"location":"Downtown Independent","address":"251 South Main Street Los Angeles, ","formattedAddress":"251 S Main St, Los Angeles, CA 90012, USA","lat":34.050286,"lng":-118.245687,"zipcode":"90012","city":"Los Angeles","neighborhood":"Central LA"},{"location":"Business Expo Center","address":"1960 S. Anaheim Way Anaheim, California 92805 714-978-9000","formattedAddress":"1960 S Anaheim Way, Anaheim, CA 92805, USA","lat":33.7986214,"lng":-117.8961631,"zipcode":"92805","city":"Anaheim","neighborhood":"Southeast Anaheim"},{"location":"Eastown","address":"6201 Hollywood Blvd. Los Angeles, CA","formattedAddress":"6201 Hollywood Blvd, Los Angeles, CA 90028, USA","lat":34.1020502,"lng":-118.3247783,"zipcode":"90028","city":"Los Angeles","neighborhood":"Hollywood"},{"location":"Academy of Motion Picture Arts and Sciences, Samuel Goldwyn Theater","address":"8949 Wilshire Blvd. Beverly Hills, ","formattedAddress":"8949 Wilshire Blvd, Beverly Hills, CA 90211, USA","lat":34.0673948,"lng":-118.3873419,"zipcode":"90211","city":"Beverly Hills"},{"location":"The Buccaneer Lounge","address":"70 W. Sierra Madre Blvd. Sierra Madre, ","formattedAddress":"70 W Sierra Madre Blvd, Sierra Madre, CA 91024, USA","lat":34.1616873,"lng":-118.0542245,"zipcode":"91024","city":"Sierra Madre"},{"location":"Forest Lawn Hall of Liberty","address":"6300 Forest Lawn Dr. Los Angeles, ","formattedAddress":"6300 Forest Lawn Dr, Los Angeles, CA 90068, USA","lat":34.1498093,"lng":-118.3269101,"zipcode":"90068","city":"Los Angeles"},{"location":"Brentwood Presbyterian Church","address":"12000 San Vicente Blvd. Los Angeles, ","formattedAddress":"12000 San Vicente Blvd, Los Angeles, CA 90049, USA","lat":34.051718,"lng":-118.4730318,"zipcode":"90049","city":"Los Angeles","neighborhood":"Brentwood"},{"location":"Stout","address":"1544 N. Cahuenga Blvd. Los Angeles, ","formattedAddress":"1544 N Cahuenga Blvd, Los Angeles, CA 90028, USA","lat":34.0994455,"lng":-118.3293462,"zipcode":"90028","city":"Los Angeles","neighborhood":"Central LA"},{"location":"Hotel Normandie","address":"605 Normandie Ave. Los Angeles, ","formattedAddress":"605 Normandie Ave, Los Angeles, CA 90005, USA","lat":34.0633173,"lng":-118.3005522,"zipcode":"90005","city":"Los Angeles","neighborhood":"Central LA"},{"location":"Amsterdam Modern on York","address":"5215 York Blvd. Highland Park, ","formattedAddress":"5215 York Blvd, Los Angeles, CA 90042, USA","lat":34.1207821,"lng":-118.2020325,"zipcode":"90042","city":"Los Angeles","neighborhood":"Eagle Rock"},{"location":"downtown Burbank","address":"N. San Fernando Blvd. Burbank, ","formattedAddress":"N San Fernando Blvd, Burbank, CA, USA","lat":34.1941432,"lng":-118.3296713,"city":"Burbank"},{"location":"First United Methodist Church","address":"1008 11th St. Santa Monica, ","formattedAddress":"1008 11th St, Santa Monica, CA 90403, USA","lat":34.0265761,"lng":-118.4948044,"zipcode":"90403","city":"Santa Monica","neighborhood":"Wilshire Montana"},{"location":"Treehouse Rooftop Lounge","address":"686 N. Spring St. Los Angeles, ","formattedAddress":"686 N Spring St, Los Angeles, CA 90012, USA","lat":34.0595345,"lng":-118.2377236,"zipcode":"90012","city":"Los Angeles","neighborhood":"Central LA"},{"location":"The San Fernando","address":"5230 San Fernando Rd Glendale, ","formattedAddress":"5230 San Fernando Rd, Glendale, CA 91203, USA","lat":34.1480767,"lng":-118.2722163,"zipcode":"91203","city":"Glendale","neighborhood":"Vineyard"},{"location":"The Lounge Theatre","address":"6201 Santa Monica Blvd. Los Angeles, ","formattedAddress":"6201 Santa Monica Blvd, Los Angeles, CA 90038, USA","lat":34.0909811,"lng":-118.3246507,"zipcode":"90038","city":"Los Angeles","neighborhood":"Hollywood"},{"location":"Simi Valley Civic Center Park","address":"3855 Alamo St. Simi Valley, CA","formattedAddress":"D, 3855 Alamo St, Simi Valley, CA 93063, USA","lat":34.2873984,"lng":-118.7223561,"zipcode":"93063","city":"Simi Valley"},{"location":"Knott's Berry Farm","address":"8039 Beach Blvd. Buena Park, ","formattedAddress":"8039 Beach Blvd, Buena Park, CA 90620, USA","lat":33.843854,"lng":-118.0001748,"zipcode":"90620","city":"Buena Park"},{"location":"Shape Up LA","address":"19564 Ventura Blvd Tarzana, ","formattedAddress":"19564 Ventura Blvd, Tarzana, CA 91356, USA","lat":34.1727814,"lng":-118.5593711,"zipcode":"91356","city":"Los Angeles","neighborhood":"Tarzana"},{"location":"Bulgogi Hut","address":"3600 Wilshire Blvd. Ste. 1000C Los Angeles, CA","formattedAddress":"3600 Wilshire Blvd #1000c, Los Angeles, CA 90010, USA","lat":34.0607066,"lng":-118.3036388,"zipcode":"90010","city":"Los Angeles","neighborhood":"Koreatown"},{"location":"The Evergreen State College","address":"2700 Evergreen Parkway NW Olympia, WA 98505 360-867-6000","formattedAddress":"2700 Evergreen Pkwy NW, Olympia, WA 98505, USA","lat":47.0733706,"lng":-122.9734736,"zipcode":"98505","city":"Olympia"},{"location":"AMC Universal CityWalk 19 (Los Angeles)","address":"100 Universal City Plaza Universal City, ","formattedAddress":"100 Universal City Plaza, North Hollywood, CA 91602, USA","lat":34.1361918,"lng":-118.3520161,"zipcode":"91602","city":"Universal City","neighborhood":"North Hollywood"},{"location":"TOMGEORGE","address":"707 S. Grand Ave. Los Angeles, CA","formattedAddress":"707 S Grand Ave, Los Angeles, CA 90017, USA","lat":34.0471324,"lng":-118.2569573,"zipcode":"90017","city":"Los Angeles","neighborhood":"Downtown"},{"location":"Timothy Maher","address":"10715 Missouri Ave Apt 305 Los Angeles, ","formattedAddress":"10715 Missouri Ave #305, Los Angeles, CA 90025, USA","lat":34.0506055,"lng":-118.4317085,"zipcode":"90025","city":"Los Angeles","neighborhood":"West Los Angeles"},{"location":"Pasadena Playhouse","address":"39 S. El Molino Ave. Pasadena, ","formattedAddress":"39 S El Molino Ave, Pasadena, CA 91101, USA","lat":34.1451149,"lng":-118.137375,"zipcode":"91101","city":"Pasadena"},{"location":"Atwater Village Theatre","address":"3269 Casitas Ave. Los Angeles, ","formattedAddress":"3269 Casitas Ave, Los Angeles, CA 90039, USA","lat":34.1164165,"lng":-118.2518773,"zipcode":"90039","city":"Los Angeles","neighborhood":"Northeast Los Angeles"},{"location":"Beach Coders Academy","address":"615 N. Nash St. El Segundo, ","formattedAddress":"615 N Nash St, El Segundo, CA 90245, USA","lat":33.92535040000001,"lng":-118.3881438,"zipcode":"90245","city":"El Segundo"},{"location":"Retro Row / 4th Street","address":"4th Street between Hermosa and Temple Long Beach, "},{"location":"East Los Angeles College","address":"1301 Avenida Cesar Chavez Monterey Park, ","formattedAddress":"1301 Avenida Cesar Chavez, Monterey Park, CA 91754, USA","lat":34.0411583,"lng":-118.1509885,"zipcode":"91754","city":"Monterey Park"},{"location":"Gallery 800","address":"5108 Lankershim Blvd. North Hollywood, ","formattedAddress":"5108 Lankershim Blvd, North Hollywood, CA 91601, USA","lat":34.1632645,"lng":-118.3732982,"zipcode":"91601","city":"Los Angeles","neighborhood":"North Hollywood"},{"location":"Square Mixx","address":"450 S Western Ave., 3rd floor Los Angeles, ","formattedAddress":"450 S Western Ave, Los Angeles, CA 90020, USA","lat":34.0657724,"lng":-118.3085041,"zipcode":"90020","city":"Los Angeles","neighborhood":"Central LA"},{"location":"Pacific Resident Theatre","address":"703 Venice Blvd. Venice, ","formattedAddress":"703 Venice Blvd, Venice, CA 90291, USA","lat":33.9917092,"lng":-118.4580386,"zipcode":"90291","city":"Los Angeles","neighborhood":"Venice"},{"location":"Ramen Bangaichi","address":"4339 W. Sunset Blvd. Los Angeles, CA 323-522-6578","formattedAddress":"4321-4343 Sunset Blvd, Los Angeles, CA 90029, USA","lat":34.0952644,"lng":-118.2829531,"zipcode":"90029","city":"Los Angeles","neighborhood":"Los Feliz"},{"location":"Whitefire Theater","address":"13500 Ventura Blvd. Sherman Oaks, ","formattedAddress":"13500 Ventura Blvd, Sherman Oaks, CA 91423, USA","lat":34.1471717,"lng":-118.4273501,"zipcode":"91423","city":"Los Angeles","neighborhood":"Sherman Oaks"},{"location":"Black Rabbit Rose","address":"1719 N. Hudson Ave. Los Angeles, ","formattedAddress":"1719 N Hudson Ave, Los Angeles, CA 90028, USA","lat":34.101888,"lng":-118.3321008,"zipcode":"90028","city":"Los Angeles","neighborhood":"Central LA"},{"location":"Hammer Museum - Annex","address":"10899 Wilshire Blvd Los Angeles ","formattedAddress":"10899 Wilshire Blvd, Los Angeles, CA 90024, USA","lat":34.0591217,"lng":-118.4436674,"zipcode":"90024","city":"Los Angeles","neighborhood":"Westwood"},{"location":"The Resident","address":"428 S Hewitt St Los Angeles ","formattedAddress":"428 S Hewitt St, Los Angeles, CA 90013, USA","lat":34.0426703,"lng":-118.2349053,"zipcode":"90013","city":"Los Angeles","neighborhood":"Central LA"},{"location":"dublab","address":"4519 Santa Monica Boulevard 4519 Santa Monica Boulevard CA Los Angeles","formattedAddress":"4519 Santa Monica Blvd, Los Angeles, CA 90029, USA","lat":34.0909885,"lng":-118.2870572,"zipcode":"90029","city":"Los Angeles","neighborhood":"Central LA"},{"location":"344 , Dhula Garden","address":"344 , Dhula Garden Miami CA 33114"},{"location":"Hollywood and Vine St.","address":"Hollywood Blvd &amp; Vine St, Los Angeles, CA Hollywood ","formattedAddress":"Hollywood Blvd & Vine St, Los Angeles, CA 90028, USA","lat":34.1016345,"lng":-118.3267051,"zipcode":"90028","city":"Los Angeles","neighborhood":"Hollywood"},{"location":"Ronald Reagan Presidential Library and Museum","address":"40 Presidential Drive Simi Valley ","formattedAddress":"40 Presidential Dr, Simi Valley, CA 93065, USA","lat":34.2598671,"lng":-118.8198082,"zipcode":"93065","city":"Simi Valley"},{"location":"The Pantages Theater","address":"6233 Hollywood Blvd. Los Angeles CA","formattedAddress":"6233 Hollywood Blvd, Los Angeles, CA 90028, USA","lat":34.102001,"lng":-118.325867,"zipcode":"90028","city":"Los Angeles","neighborhood":"Hollywood"},{"location":"California Art Club Gallery at The Old Mill","address":"1120 Old Mill Road San Marino ","formattedAddress":"1120 Old Mill Rd, San Marino, CA 91108, USA","lat":34.1194544,"lng":-118.1275079,"zipcode":"91108","city":"San Marino"},{"location":"Los Angeles-citywide","address":"Fifth Street and Grand Avenue Los Angeles CA","formattedAddress":"S Grand Ave & W 5th St, Los Angeles, CA 90071, USA","lat":34.0502052,"lng":-118.2539452,"zipcode":"90071","city":"Los Angeles","neighborhood":"Downtown"},{"location":"The Huntington","address":"1151 Oxford Road 1151 Oxford Road CA","formattedAddress":"The Huntington Library, Art Collections, and Botanical Gardens, 1151 Oxford Rd, San Marino, CA 91108, USA","lat":34.1290452,"lng":-118.1145242,"zipcode":"91108","city":"San Marino"},{"location":"University Art Museum, CSULB","address":"1250 Bellflower Boulevard Long Beach ","formattedAddress":"1250 N Bellflower Blvd, Long Beach, CA 90815, USA","lat":33.7826983,"lng":-118.1223044,"zipcode":"90815","city":"Long Beach"},{"location":"The Road Theatre on Magnolia","address":"10747 W Magnolia Blvd North Hollywood ","formattedAddress":"10747 W Magnolia Blvd, North Hollywood, CA 91601, USA","lat":34.1649276,"lng":-118.3652803,"zipcode":"91601","city":"Los Angeles","neighborhood":"North Hollywood"},{"location":"Odyssey Theater","address":"2055 S. Sepulveda Blvd. Los Angeles ","formattedAddress":"2055 S Sepulveda Blvd, Los Angeles, CA 90025, USA","lat":34.0417077,"lng":-118.439644,"zipcode":"90025","city":"Los Angeles","neighborhood":"West Los Angeles"},{"location":"The Help Group, Culver City","address":"4160 Grand View Blvd. Culver City ","formattedAddress":"4160 Grand View Blvd, Los Angeles, CA 90066, USA","lat":33.9979797,"lng":-118.4251659,"zipcode":"90066","city":"Los Angeles"},{"location":"El Monte Community Center","address":"3130 Tyler Ave El Monte ","formattedAddress":"3130 Tyler Ave, El Monte, CA 91731, USA","lat":34.06572,"lng":-118.035218,"zipcode":"91731","city":"El Monte"},{"location":"Barakat Gallery","address":"941 N La Cienega Blvd  ","formattedAddress":"941 N La Cienega Blvd, Los Angeles, CA 90069, USA","lat":34.0881283,"lng":-118.3767778,"zipcode":"90069","city":"Los Angeles","neighborhood":"Beverly Grove"},{"location":"Palos Verdes Art Center/Beverly G. Alpay Center for Arts Education","address":"5504 West Crestridge Road Rancho Palos Verdes ","formattedAddress":"5504 Crestridge Rd, Rancho Palos Verdes, CA 90275, USA","lat":33.7666031,"lng":-118.3723825,"zipcode":"90275","city":"Rancho Palos Verdes"},{"location":"Huntington Library","address":"1151 Oxford Road San Marino ","formattedAddress":"1151 Oxford Rd, San Marino, CA 91108, USA","lat":34.1280572,"lng":-118.1096821,"zipcode":"91108","city":"San Marino"},{"location":"Various - see description or website","address":"Various - see description or website Los Angeles "},{"location":"Ahmanson Theater","address":"135 N. Grand Ave Los Angeles ","formattedAddress":"The Music Center, 135 N Grand Ave, Los Angeles, CA 90012, USA","lat":34.0566067,"lng":-118.2489325,"zipcode":"90012","city":"Los Angeles","neighborhood":"Central LA"},{"location":"Long Beach Playhouse Studio Theatre","address":"5021 E Anaheim St Long Beach ","formattedAddress":"5021 E Anaheim St, Long Beach, CA 90804, USA","lat":33.783024,"lng":-118.1351223,"zipcode":"90804","city":"Long Beach","neighborhood":"Circle Area"},{"location":"Pacific Park, Santa Monica Pier","address":"380 Santa Monica Pier Santa Monica ","formattedAddress":"380 Santa Monica Pier, Santa Monica, CA 90401, USA","lat":34.0085755,"lng":-118.4981012,"zipcode":"90401","city":"Santa Monica"},{"location":"Pico Playhouse","address":"10508 W. Pico Blvd. Los Angeles ","formattedAddress":"10508 W Pico Blvd, Los Angeles, CA 90064, USA","lat":34.0447662,"lng":-118.4191426,"zipcode":"90064","city":"Los Angeles","neighborhood":"Rancho Park"},{"location":"Kiki & David Gindler Performing Arts Center","address":"110 East Broadway Glendale ","formattedAddress":"110 E Broadway, Glendale, CA 91205, USA","lat":34.1461412,"lng":-118.2543168,"zipcode":"91205","city":"Glendale","neighborhood":"Downtown"},{"location":"OPODZ","address":"362 E 2nd St Los Angeles ","formattedAddress":"362 E 2nd St, Los Angeles, CA 90012, USA","lat":34.0479896,"lng":-118.2399848,"zipcode":"90012","city":"Los Angeles","neighborhood":"Central LA"},{"location":"The Lounge Theater","address":"6201 Santa Monica Blvd &quot;Los Angeles&quot; ","formattedAddress":"6201 Santa Monica Blvd, Los Angeles, CA 90038, USA","lat":34.0909811,"lng":-118.3246507,"zipcode":"90038","city":"Los Angeles","neighborhood":"Hollywood"},{"location":"Company of Angels","address":"501 S. Spring Street Los Angeles ","formattedAddress":"501 S Spring St, Los Angeles, CA 90013, USA","lat":34.0472554,"lng":-118.2500328,"zipcode":"90013","city":"Los Angeles","neighborhood":"Downtown"},{"location":"Son of Semele Theater","address":"3301 Beverly Blvd. Los Angeles ","formattedAddress":"3301 Beverly Blvd, Los Angeles, CA 90004, USA","lat":34.073261,"lng":-118.2847325,"zipcode":"90004","city":"Los Angeles","neighborhood":"Central LA"},{"location":"A Guest Production at the Odyssey Theatre","address":"2055 S Sepulveda Blvd. Los Angeles ","formattedAddress":"2055 S Sepulveda Blvd, Los Angeles, CA 90025, USA","lat":34.0417077,"lng":-118.439644,"zipcode":"90025","city":"Los Angeles","neighborhood":"West Los Angeles"},{"location":"Pacific Resident Theatre","address":"705 1/2 N. Venice Blvd. Venice ","formattedAddress":"1 N Venice Blvd, Venice, CA 90291, USA","lat":33.9840307,"lng":-118.4709819,"zipcode":"90291","city":"Los Angeles","neighborhood":"Venice"},{"location":"David Henry Hwang Theatre at East West Players","address":"120 Judge John Aiso St. Los Angeles ","formattedAddress":"120 Judge John Aiso St, Los Angeles, CA 90012, USA","lat":34.0506747,"lng":-118.2400116,"zipcode":"90012","city":"Los Angeles","neighborhood":"Central LA"},{"location":"Company of Angels at Legacy LA","address":"1350 San Pablo Street Los Angeles ","formattedAddress":"1350 San Pablo St, Los Angeles, CA 90089, USA","lat":34.0601298,"lng":-118.2028724,"zipcode":"90089","city":"Los Angeles","neighborhood":"Northeast Los Angeles"},{"location":"The Other Space  The Actors Company","address":"1111 S. Figueroa St. Los Angeles ","formattedAddress":"STAPLES Center, 1111 S Figueroa St, Los Angeles, CA 90015, USA","lat":34.0430058,"lng":-118.2673597,"zipcode":"90015","city":"Los Angeles","neighborhood":"Central LA"},{"location":"Theatre West","address":"3333 Cahuenga Blvd. West Los Angeles ","formattedAddress":"3333 Cahuenga Blvd W, Los Angeles, CA 90068, USA","lat":34.1306428,"lng":-118.351188,"zipcode":"90068","city":"Los Angeles","neighborhood":"Studio City"},{"location":"The Secret Rose Theater","address":"11246 Magnolia Blvd North Hollywood ","formattedAddress":"11246 W Magnolia Blvd, North Hollywood, CA 91601, USA","lat":34.1646919,"lng":-118.3761702,"zipcode":"91601","city":"Los Angeles","neighborhood":"North Hollywood"},{"location":"Atwater Village Theatre","address":"3269 Casitas Ave. Silver Lake ","formattedAddress":"3269 Casitas Ave, Los Angeles, CA 90039, USA","lat":34.1164165,"lng":-118.2518773,"zipcode":"90039","city":"Los Angeles","neighborhood":"Northeast Los Angeles"},{"location":"Garis & Hahn","address":"1820 Industrial St, Los Angeles Downtown ","formattedAddress":"1820 Industrial St, Los Angeles, CA 90021, USA","lat":34.035803,"lng":-118.2337279,"zipcode":"90021","city":"Los Angeles","neighborhood":"Downtown"},{"location":"Superchief Gallery","address":"739 Kohler St Los Angeles ","formattedAddress":"739 Kohler St, Los Angeles, CA 90021, USA","lat":34.0366444,"lng":-118.243671,"zipcode":"90021","city":"Los Angeles","neighborhood":"Downtown"},{"location":"Barbara Morrison Performing Arts Center","address":"4305 Degnan Blvd Los Angeles ","formattedAddress":"4305 Degnan Blvd, Los Angeles, CA 90008, USA","lat":34.0058192,"lng":-118.3318906,"zipcode":"90008","city":"Los Angeles","neighborhood":"South Los Angeles"},{"location":"Kirk Douglas Theatre","address":"9820 Washington Blvd. Culver City ","formattedAddress":"9820 Washington Blvd, Culver City, CA 90232, USA","lat":34.021564,"lng":-118.3969631,"zipcode":"90232","city":"Culver City"},{"location":"Howl at the Moon","address":"1000 Universal Studios Blvd. Universal City ","formattedAddress":"1000 Universal Studios Blvd, Universal City, CA 91608, USA","lat":34.1370223,"lng":-118.3522663,"zipcode":"91608","city":"Universal City","neighborhood":"Central LA"},{"location":"MiniBar Hollywood","address":"6141 Franklin Ave Hollywood ","formattedAddress":"6141 Franklin Ave, Los Angeles, CA 90028, USA","lat":34.1054395,"lng":-118.3236787,"zipcode":"90028","city":"Los Angeles","neighborhood":"Central LA"},{"location":"Noe Restaurant","address":"251 S. Olive St.  Downtown ","formattedAddress":"251 S Olive St, Los Angeles, CA 90012, USA","lat":34.0525511,"lng":-118.2504527,"zipcode":"90012","city":"Los Angeles","neighborhood":"Downtown"},{"location":"The Buffalo Club","address":"1520 W Olympic Blvd Santa Monica ","formattedAddress":"1520 Olympic Blvd, Santa Monica, CA 90404, USA","lat":34.0207689,"lng":-118.4788754,"zipcode":"90404","city":"Santa Monica","neighborhood":"Pico"},{"location":"Comedy and Magic Club","address":"1018 Hermosa Avenue Hermosa Beach ","formattedAddress":"1018 Hermosa Ave, Hermosa Beach, CA 90254, USA","lat":33.8610352,"lng":-118.3993779,"zipcode":"90254","city":"Hermosa Beach"},{"location":"The GRAMMY Museum®","address":"A245, 800 West Olympic Boulevard Los Angeles ","formattedAddress":"Lucky Strike Bowling - Los Angeles, 800 W Olympic Blvd, Los Angeles, CA 90015, USA","lat":34.0447954,"lng":-118.2652703,"zipcode":"90015","city":"Los Angeles","neighborhood":"Central LA"},{"location":"Universal CityWalk","address":"100 Universal City Plaza Los Angeles CA","formattedAddress":"100 Universal City Plaza, Universal City, CA 91608, USA","lat":34.1361217,"lng":-118.3548467,"zipcode":"91608","city":"Universal City"},{"location":"Raymond Kabbaz Theater","address":"CA","formattedAddress":"California, USA","lat":36.778261,"lng":-119.4179324},{"location":"TCL Chinese Theatre","address":"6925 Hollywood Blvd Hollywood ","formattedAddress":"6925 Hollywood Blvd, Los Angeles, CA 90028, USA","lat":34.102117,"lng":-118.3409381,"zipcode":"90028","city":"Los Angeles","neighborhood":"Hollywood"},{"location":"Reformation","address":"8850 Washington Blvd. Culver City ","formattedAddress":"8850 Washington Blvd, Culver City, CA 90232, USA","lat":34.0267767,"lng":-118.3881675,"zipcode":"90232","city":"Culver City","neighborhood":"Lucerne - Higuera"},{"location":"The Walt Disney Concert Hall","address":"111 S. Grand Ave. Los Angeles ","formattedAddress":"111 S Grand Ave, Los Angeles, CA 90012, USA","lat":34.0553468,"lng":-118.2499213,"zipcode":"90012","city":"Los Angeles","neighborhood":"Downtown"},{"location":"The Canyon Santa Clarita","address":"24201 Valencia Blvd #1351 Santa Clarita ","formattedAddress":"24201 Valencia Blvd #1351, Santa Clarita, CA 91355, USA","lat":34.4147514,"lng":-118.558256,"zipcode":"91355","city":"Santa Clarita"},{"location":"CULVER CITY VETERANS MEMORIAL COMPLEX","address":"4117 Overland Ave Culver City ","formattedAddress":"4117 Overland Ave, Culver City, CA 90230, USA","lat":34.012953,"lng":-118.4026083,"zipcode":"90230","city":"Culver City","neighborhood":"Park West"},{"location":"The Wallis Annenberg Center for the Performing Arts","address":"9390 North Santa Monica Boulevard, Beverly Hills,  ","formattedAddress":"9390 N Santa Monica Blvd, Beverly Hills, CA 90210, USA","lat":34.0722901,"lng":-118.4012055,"zipcode":"90210","city":"Beverly Hills"},{"location":"Auto Club Raceway at Pomona","address":"2780 Fairplex Dr. Pomona CA","formattedAddress":"2780 Fairplex Dr, Pomona, CA 91768, USA","lat":34.0954488,"lng":-117.7694112,"zipcode":"91768","city":"Pomona","neighborhood":"Bonita"},{"location":"California State University Northridge, Northridge Center Complex, University Student Union","address":"18111 Nordhoff St Northridge ","formattedAddress":"18111 Nordhoff St, Northridge, CA 91330, USA","lat":34.237378,"lng":-118.5281711,"zipcode":"91330","city":"Los Angeles","neighborhood":"Northridge"},{"location":"PAPYRUS Beverly Center","address":"8500 Beverly Blvd, Los Angeles  ","formattedAddress":"Beverly Center, 8500 Beverly Blvd, Los Angeles, CA 90048, USA","lat":34.0753309,"lng":-118.3774933,"zipcode":"90048","city":"Los Angeles","neighborhood":"Central LA"},{"location":"Movember HQ","address":"8559 Higuera Street Culver City ","formattedAddress":"8559 Higuera St, Culver City, CA 90232, USA","lat":34.0228251,"lng":-118.3824308,"zipcode":"90232","city":"Culver City","neighborhood":"Lucerne - Higuera"},{"location":"Paper or Plastik Cafe","address":"5772 West Pico Blvd Mid City ","formattedAddress":"5772 W Pico Blvd, Los Angeles, CA 90019, USA","lat":34.0508251,"lng":-118.3644004,"zipcode":"90019","city":"Los Angeles","neighborhood":"Central LA"},{"location":"St. Felix Bar","address":"1602 N. Cahuenga Blvd. Hollywood ","formattedAddress":"1602 N Cahuenga Blvd, Los Angeles, CA 90028, USA","lat":34.099929,"lng":-118.3292369,"zipcode":"90028","city":"Los Angeles","neighborhood":"Central LA"},{"location":"Matadome","address":"18111 Nordhoff Street Northridge CA","formattedAddress":"18111 Nordhoff St, Northridge, CA 91330, USA","lat":34.237378,"lng":-118.5281711,"zipcode":"91330","city":"Los Angeles","neighborhood":"Northridge"},{"location":"Royal Academy The Sound Of Music","address":"2535 Via Campo Ave Montebello ","formattedAddress":"2535 Via Campo, Montebello, CA 90640, USA","lat":34.0300651,"lng":-118.1237805,"zipcode":"90640","city":"Montebello","neighborhood":"South Montebello"},{"location":"Herrick Chapel at Occidental College","address":"Los Angeles (Eagle Rock). Los Angeles (Eagle Rock). CA","formattedAddress":"Eagle Rock, Los Angeles, CA, USA","lat":34.13224690000001,"lng":-118.2117257,"city":"Los Angeles","neighborhood":"Eagle Rock"},{"location":"City Garage at Bergamot Station Arts Center","address":"2525 Michigan Ave. T1  ","formattedAddress":"2525 Michigan Avenue, Chicago, IL 60616, USA","lat":41.8466974,"lng":-87.62138519999999,"zipcode":"60616","city":"Chicago","neighborhood":"Near South Side"},{"location":"Highland Park Bowl","address":"5621 N Figueroa St Highland Park ","formattedAddress":"5621 N Figueroa St, Los Angeles, CA 90042, USA","lat":34.1096026,"lng":-118.1936953,"zipcode":"90042","city":"Los Angeles","neighborhood":"Highland Park"},{"location":"Craft & Folk Museum","address":"5814 Wilshire Blvd  La Brea ","formattedAddress":"5814 Wilshire Blvd, Los Angeles, CA 90036, USA","lat":34.0621895,"lng":-118.355588,"zipcode":"90036","city":"Los Angeles","neighborhood":"Mid-Wilshire"},{"location":"Baldwin Hills Scenic Overlook","address":"6300 Hetzler Rd. Culver City ","formattedAddress":"6300 Hetzler Rd, Culver City, CA 90232, USA","lat":34.0175825,"lng":-118.3840379,"zipcode":"90232","city":"Culver City"},{"location":"Lois Lambert Gallery- Bergamot Station","address":"2525 Michigan ave. E3 Santa Monica ","formattedAddress":"2525 Michigan Ave, Santa Monica, CA 90405, USA","lat":34.02778929999999,"lng":-118.4684355,"zipcode":"90405","city":"Santa Monica","neighborhood":"Pico"},{"location":"Schoos Night Gallery","address":"8271 Santa Monica Blvd.   ","formattedAddress":"8271 Santa Monica Blvd, West Hollywood, CA 90046, USA","lat":34.0909202,"lng":-118.3696098,"zipcode":"90046","city":"West Hollywood","neighborhood":"Central LA"},{"location":"Walmart","address":"1827 Walnut Grove Avenue Rosemead ","formattedAddress":"Wal-Mart - Rosemead, 1827 Walnut Grove Ave, Rosemead, CA 91770, USA","lat":34.0505256,"lng":-118.0855655,"zipcode":"91770","city":"Rosemead","neighborhood":"Garvey"},{"location":"Prado Regional Park","address":"16700 Euclid Avenue Chino ","formattedAddress":"16700 Euclid Ave, Chino, CA 91708, USA","lat":33.9458499,"lng":-117.6500559,"zipcode":"91708","city":"Chino"},{"location":"Los Angeles Trade Technical College","address":"400 W Washington Blvd Los Angeles, California ","formattedAddress":"MH, 400 W Washington Blvd, Los Angeles, CA 90015, USA","lat":34.0325515,"lng":-118.2697468,"zipcode":"90015","city":"Los Angeles","neighborhood":"South Los Angeles"},{"location":"Whittier Narrows Park (Meadows Picnic Area)","address":"750 Santa Anita Ave South El Monte ","formattedAddress":"750 Santa Anita Ave, South El Monte, CA 91733, USA","lat":34.0362104,"lng":-118.0562731,"zipcode":"91733","city":"South El Monte"},{"location":"PAPYRUS Westfield Century City","address":"10250 Santa Monica Blvd Century City ","formattedAddress":"10250 California State Route 2, Los Angeles, CA 90067, USA","lat":34.0596051,"lng":-118.4194354,"zipcode":"90067","city":"Los Angeles","neighborhood":"Century City"},{"location":"Walmart","address":"7250 Carson Boulevard Long Beach ","formattedAddress":"7250 Carson Blvd, Long Beach, CA 90808, USA","lat":33.8290928,"lng":-118.0908205,"zipcode":"90808","city":"Long Beach"},{"location":"Morgan-Wixson Theatre Y.E.S.","address":"2627 Pico Blvd Santa Monica ","formattedAddress":"2627 Pico Blvd, Santa Monica, CA 90405, USA","lat":34.0237571,"lng":-118.4619338,"zipcode":"90405","city":"Santa Monica","neighborhood":"Pico"},{"location":"William Turner Gallery - Bergamot Station","address":"2525 Michigan Avenue Santa Monica ","formattedAddress":"2525 Michigan Ave, Santa Monica, CA 90405, USA","lat":34.02778929999999,"lng":-118.4684355,"zipcode":"90405","city":"Santa Monica","neighborhood":"Pico"},{"location":"Lois Lambert Gallery- Bergamot Station","address":"2525 Michigan Avenue E-3 Santa Monica ","formattedAddress":"2525 Michigan Ave, Santa Monica, CA 90405, USA","lat":34.02778929999999,"lng":-118.4684355,"zipcode":"90405","city":"Santa Monica","neighborhood":"Pico"},{"location":"Hotel Maya","address":"700 Queensway Drive Long Beach, CA ","formattedAddress":"700 Queensway Dr, Long Beach, CA 90802, USA","lat":33.7567328,"lng":-118.1987124,"zipcode":"90802","city":"Long Beach","neighborhood":"Queensway Bay"},{"location":"KP Projects","address":"170 South La Brea Avenue La Brea ","formattedAddress":"170 South La Brea Ave, Los Angeles, CA 90036, USA","lat":34.0714876,"lng":-118.3440441,"zipcode":"90036","city":"Los Angeles","neighborhood":"La Brea"},{"location":"Greenbar Distillery","address":"2459 8th Street Los Angeles ","formattedAddress":"2459 E 8th St, Los Angeles, CA 90021, USA","lat":34.02986,"lng":-118.228132,"zipcode":"90021","city":"Los Angeles","neighborhood":"Downtown"},{"location":"The Left Bank","address":"2479 Fletcher Dr Los Angeles ","formattedAddress":"2479 Fletcher Dr, Los Angeles, CA 90039, USA","lat":34.1075188,"lng":-118.2550627,"zipcode":"90039","city":"Los Angeles","neighborhood":"Northeast Los Angeles"},{"location":"Santa Cecilia Arts & Learning Center","address":"2751 West Broadway Eagle Rock ","formattedAddress":"2751 W Broadway, Los Angeles, CA 90041, USA","lat":34.1435559,"lng":-118.224918,"zipcode":"90041","city":"Los Angeles","neighborhood":"Northeast Los Angeles"},{"location":"The Floricanto Center for the Performing Arts","address":"4232 Whiteside Street Los Angeles ","formattedAddress":"4232 Whiteside St, Los Angeles, CA 90063, USA","lat":34.0605088,"lng":-118.1755883,"zipcode":"90063","city":"Los Angeles"},{"location":"Gaslamp Long Beach","address":"6251 E. Pacific Coast Highway Long Beach ","formattedAddress":"6251 E Pacific Coast Hwy, Long Beach, CA 90803, USA","lat":33.7671249,"lng":-118.1163545,"zipcode":"90803","city":"Long Beach","neighborhood":"Marina"},{"location":"Little Beckman Auditorium, Campus of CalTech","address":"1200 E California Blvd  ","formattedAddress":"1200 E California Blvd, Pasadena, CA 91125, USA","lat":34.1356666,"lng":-118.12724,"zipcode":"91125","city":"Pasadena"},{"location":"LAX Westin Hotel","address":"5400 W Century Blvd Los Angeles, ","formattedAddress":"5400 W Century Blvd, Los Angeles, CA 90045, USA","lat":33.9447629,"lng":-118.3741197,"zipcode":"90045","city":"Los Angeles"},{"location":"The Canyon Agoura Hills","address":"28912 Roadside Dr Agoura Hills ","formattedAddress":"28912 Roadside Dr, Agoura Hills, CA 91301, USA","lat":34.144004,"lng":-118.7551541,"zipcode":"91301","city":"Agoura Hills"},{"location":"Skylight Theatre Company","address":"1816 1/2 N Vermont Ave. Los Angeles ","formattedAddress":"1816 1/2 N Vermont Ave, Los Angeles, CA 90027, USA","lat":34.1040603,"lng":-118.2915836,"zipcode":"90027","city":"Los Angeles","neighborhood":"Central LA"},{"location":"Revive Theater","address":"12420 Santa Monica Blvd. West Los Angeles ","formattedAddress":"12420 Santa Monica Blvd, Los Angeles, CA 90025, USA","lat":34.0389001,"lng":-118.467141,"zipcode":"90025","city":"Los Angeles","neighborhood":"West Los Angeles"},{"location":"Dockweiler State Beach","address":"12000 Vista Del Mar Playa Del Rey ","formattedAddress":"12000 Vista Del Mar, Playa Del Rey, CA 90293, USA","lat":33.9251867,"lng":-118.4307107,"zipcode":"90293","city":"Los Angeles","neighborhood":"Playa del Rey"},{"location":"The Petersen Automotive Museum","address":"6060 Wilshire Blvd. El Sereno ","formattedAddress":"2839 N Eastern Ave, Los Angeles, CA 90032, USA","lat":34.0799751,"lng":-118.1784101,"zipcode":"90032","city":"Los Angeles","neighborhood":"Northeast Los Angeles"},{"location":"The Sunset Theatre Company","address":"1603 Aviation Blvd.  Redondo Beach ","formattedAddress":"1603 Aviation Blvd, Redondo Beach, CA 90278, USA","lat":33.8696523,"lng":-118.3828654,"zipcode":"90278","city":"Redondo Beach","neighborhood":"North Redondo"},{"location":"Marine Stadium","address":"Appian Way @ Bayshore Long Beach ","formattedAddress":"Appian Way & Bay Shore Ave, Long Beach, CA 90803, USA","lat":33.7607133,"lng":-118.1237989,"zipcode":"90803","city":"Long Beach","neighborhood":"Belmont Park"},{"location":"The Westin Pasadena","address":"191 North Los Robles Ave Pasadena ","formattedAddress":"191 N Los Robles Ave, Pasadena, CA 91101, USA","lat":34.1490992,"lng":-118.1418935,"zipcode":"91101","city":"Pasadena"},{"location":"FIG Restaurant at The Fairmont Miramar Hotel and Bungalows","address":"101 Wilshire Blvd Santa Monica ","formattedAddress":"101 Wilshire Blvd, Santa Monica, CA 90401, USA","lat":34.017845,"lng":-118.5014962,"zipcode":"90401","city":"Santa Monica","neighborhood":"Wilshire Montana"},{"location":"Ken Nakaoka Community Center","address":"1670 W. 162nd St. Gardena ","formattedAddress":"1670 W 162nd St, Gardena, CA 90247, USA","lat":33.8832914,"lng":-118.3065755,"zipcode":"90247","city":"Gardena"},{"location":"Baila Baila Studio","address":"640 Lincoln Blvd  ","formattedAddress":"640 Lincoln Blvd, Lincoln, CA 95648, USA","lat":38.8937713,"lng":-121.2928064,"zipcode":"95648","city":"Lincoln","neighborhood":"Downtown Lincoln"},{"location":"St. James presbyterian church","address":"19414 Ventura Blvd. Tarzana ","formattedAddress":"19414 Ventura Blvd, Tarzana, CA 91356, USA","lat":34.1724319,"lng":-118.5563574,"zipcode":"91356","city":"Los Angeles","neighborhood":"Tarzana"},{"location":"Bogie's at the Westlake Inn","address":"32001 Agoura Road Westlake Village ","formattedAddress":"32001 Agoura Rd, Westlake Village, CA 91361, USA","lat":34.1487865,"lng":-118.817408,"zipcode":"91361","city":"Westlake Village"},{"location":"Samuel Goldwyn Theater","address":"8948 Wilshire Boulevard Beverly Hills, California 90210 Beverly Hills ","formattedAddress":"8948 Wilshire Blvd, Beverly Hills, CA 90211, USA","lat":34.0670583,"lng":-118.3872092,"zipcode":"90211","city":"Beverly Hills"},{"location":"Sherman Oaks Galleria, Community Room","address":"15301 Ventura Blvd. Sherman Oaks ","formattedAddress":"15301-15303 Ventura Blvd, Sherman Oaks, CA 91403, USA","lat":34.155264,"lng":-118.467411,"zipcode":"91403","city":"Los Angeles","neighborhood":"Sherman Oaks"},{"location":"LA Live 14","address":"1000 West Olympic Boulevard Downtown ","formattedAddress":"1000 W Olympic Blvd, Los Angeles, CA 90015, USA","lat":34.0457356,"lng":-118.2680272,"zipcode":"90015","city":"Los Angeles","neighborhood":"Downtown"},{"location":"The Writers Guild Theater, 135 South Doheny Drive, Beverly Hills, Calif.","address":"135 South Doheny Drive Beverly Hills ","formattedAddress":"135 S Doheny Dr, Beverly Hills, CA 90211, USA","lat":34.0659201,"lng":-118.3898719,"zipcode":"90211","city":"Beverly Hills"},{"location":"Ray Stark Family Theater","address":"900 W. 34th Street Historic West Adams "},{"location":"260 Sample Sale","address":"265 N. Beverly Drive Beverly Hills, CA  ","formattedAddress":"265 N Beverly Dr, Beverly Hills, CA 90210, USA","lat":34.068006,"lng":-118.4005186,"zipcode":"90210","city":"Beverly Hills"},{"location":"Figueroa at Wilshire","address":"601 S. Figueroa Street Los Angeles ","formattedAddress":"Figueroa at Wilshire, 601 S Figueroa St, Los Angeles, CA 90017, USA","lat":34.0508105,"lng":-118.2592862,"zipcode":"90017","city":"Los Angeles","neighborhood":"Central LA"},{"location":"The Ray Stark Family Theatre (USC School of Cinematic Arts)","address":"900 W. 34th Street Los Angeles ","formattedAddress":"900 W 34th St, Los Angeles, CA 90007, USA","lat":34.0235516,"lng":-118.2861891,"zipcode":"90007","city":"Los Angeles","neighborhood":"South Los Angeles"},{"location":"The Yard House – L.A. Live At Staples Center","address":"800 W Olympic Blvd, A-115  Downtown ","formattedAddress":"Lucky Strike Bowling - Los Angeles, 800 W Olympic Blvd, Los Angeles, CA 90015, USA","lat":34.0447954,"lng":-118.2652703,"zipcode":"90015","city":"Los Angeles","neighborhood":"Central LA"},{"location":"Rave Baldwin Hills Crenshaw Plaza 15","address":"4020 Marlton Ave. Leimert Park ","formattedAddress":"4020 Marlton Ave, Los Angeles, CA 90008, USA","lat":34.011654,"lng":-118.3373468,"zipcode":"90008","city":"Los Angeles","neighborhood":"South Los Angeles"},{"location":"City Club Los Angeles","address":"555 S Flower St Los Angeles ","formattedAddress":"555 S Flower St, Los Angeles, CA 90017, USA","lat":34.0506388,"lng":-118.2575747,"zipcode":"90017","city":"Los Angeles","neighborhood":"Central LA"},{"location":"Locali Healthy Convenience","address":"8730 Santa Monica Blvd. Unit D  ","formattedAddress":"8730 Santa Monica Blvd d, West Hollywood, CA 90069, USA","lat":34.0866553,"lng":-118.3809499,"zipcode":"90069","city":"West Hollywood","neighborhood":"Tri-West"},{"location":"FISHBAR","address":"3801 Highland Avenue Manhattan Beach ","formattedAddress":"3801 Highland Ave, Manhattan Beach, CA 90266, USA","lat":33.90168,"lng":-118.4182994,"zipcode":"90266","city":"Manhattan Beach"},{"location":"Ray Stark Family Theatre, SCA 108, George Lucas Building, USC School of Cinematic Arts Complex","address":"900 W. 34th Street, Los Angeles, CA  Historic West Adams ","formattedAddress":"900 W 34th St, Los Angeles, CA 90007, USA","lat":34.0234463,"lng":-118.2871493,"zipcode":"90007","city":"Los Angeles","neighborhood":"South Los Angeles"},{"location":"James Bridges Theater","address":"235 Charles E. Young Drive Los Angeles ","formattedAddress":"East Melnitz Hall, 235 Charles E Young Dr E, Los Angeles, CA 90024, USA","lat":34.0764274,"lng":-118.439368,"zipcode":"90024","city":"Los Angeles","neighborhood":"Westwood"},{"location":"1340 Macgowan Hall","address":"245 Charles E. Young Drive, East  ","formattedAddress":"Macgowan Hall, 245 Charles E Young Dr E, Los Angeles, CA 90095, USA","lat":34.0758815,"lng":-118.4396813,"zipcode":"90095","city":"Los Angeles","neighborhood":"Westwood"},{"location":"Elysium Conservatory Theatre","address":"729 S. Palos Verdes St., San Pedro San Pedro ","formattedAddress":"729 S Palos Verdes St, San Pedro, CA 90733, USA","lat":33.7373217,"lng":-118.2815303,"zipcode":"90733","city":"Los Angeles","neighborhood":"San Pedro"},{"location":"LA Law Library","address":"301 W. 1st Street Los Angeles ","formattedAddress":"301 W 1st St, Los Angeles, CA 90012, USA","lat":34.0543829,"lng":-118.2456,"zipcode":"90012","city":"Los Angeles","neighborhood":"Central LA"},{"location":"Palace Theater","address":"630 S. Broadway Los Angeles ","formattedAddress":"630 S Broadway, Los Angeles, CA 90014, USA","lat":34.0457263,"lng":-118.252351,"zipcode":"90014","city":"Los Angeles","neighborhood":"Central LA"},{"location":"Ann and Jerry Moss Theater at New Roads School","address":"3131 W. Olympic Blvd. Santa Monica ","formattedAddress":"3131 Olympic Blvd, Santa Monica, CA 90404, USA","lat":34.0312851,"lng":-118.4612321,"zipcode":"90404","city":"Santa Monica"},{"location":"Downtown Burbank","address":"San Fernando Blvd. and Olive Ave. Burbank CA","formattedAddress":"E Olive Ave & N San Fernando Blvd, Burbank, CA 91502, USA","lat":34.180839,"lng":-118.308744,"zipcode":"91502","city":"Burbank"},{"location":"L.A. County Arboretum and Botanic Garden","address":"301 North Baldwin Ave. Arcadia ","formattedAddress":"301 N Baldwin Ave, Arcadia, CA 91007, USA","lat":34.1448279,"lng":-118.0508813,"zipcode":"91007","city":"Arcadia"},{"location":"Torrance Marriott South Bay","address":"3635 Fashion Way Torrance ","formattedAddress":"3635 Fashion Way, Torrance, CA 90503, USA","lat":33.8358529,"lng":-118.350556,"zipcode":"90503","city":"Torrance"},{"location":"JACCC - Japanese American Cultural & Community Center","address":"244 S. San Pedro Street, Los Angeles, ","formattedAddress":"244 S San Pedro St, Los Angeles, CA 90012, USA","lat":34.04778,"lng":-118.2418045,"zipcode":"90012","city":"Los Angeles","neighborhood":"Central LA"},{"location":"The Container Yard","address":"800 E 4th St. Los Angeles ","formattedAddress":"800 E 4th St, Los Angeles, CA 90013, USA","lat":34.0431629,"lng":-118.2373236,"zipcode":"90013","city":"Los Angeles","neighborhood":"Central LA"},{"location":"Le Mieux","address":"760 E Walnut St.   ","formattedAddress":"760 E Walnut St, Pasadena, CA 91101, USA","lat":34.149253,"lng":-118.134745,"zipcode":"91101","city":"Pasadena"},{"location":"Office Party","address":"4514 N Figueroa St Los Angeles, CA Mount Washington ","formattedAddress":"4514 N Figueroa St, Los Angeles, CA 90065, USA","lat":34.096413,"lng":-118.2063691,"zipcode":"90065","city":"Los Angeles","neighborhood":"Northeast Los Angeles"},{"location":"Cleaver Hall","address":"535 W. Roses Rd. San Gabriel ","formattedAddress":"535 W Roses Rd, San Gabriel, CA 91775, USA","lat":34.1101131,"lng":-118.1083293,"zipcode":"91775","city":"San Gabriel"},{"location":"Java Man","address":"157 Pier Ave Hermosa Beach ","formattedAddress":"157 Pier Ave, Hermosa Beach, CA 90254, USA","lat":33.8629918,"lng":-118.3993547,"zipcode":"90254","city":"Hermosa Beach"},{"location":"Samarasa","address":"1030 North Alvarado St Silver Lake ","formattedAddress":"1030 N Alvarado St, Los Angeles, CA 90026, USA","lat":34.0771052,"lng":-118.2635038,"zipcode":"90026","city":"Los Angeles","neighborhood":"Echo Park"},{"location":"Stout Burgers & Beers","address":"11262 Ventura Blvd Studio City ","formattedAddress":"11262 Ventura Blvd, Studio City, CA 91604, USA","lat":34.1410474,"lng":-118.3752496,"zipcode":"91604","city":"Los Angeles","neighborhood":"Studio City"},{"location":"Stout Burgers & Beers Hollywood","address":"1544 N Cahuenga Blvd Hollywood ","formattedAddress":"1544 N Cahuenga Blvd, Los Angeles, CA 90028, USA","lat":34.0994455,"lng":-118.3293462,"zipcode":"90028","city":"Los Angeles","neighborhood":"Central LA"},{"location":"Pico Branch Library","address":"2201 Pico Boulevard  ","formattedAddress":"2201 Pico Blvd, Santa Monica, CA 90405, USA","lat":34.021102,"lng":-118.467354,"zipcode":"90405","city":"Santa Monica","neighborhood":"Pico"},{"location":"The Dolby Theatre","address":"6801 Hollywood Boulevard Los Angeles ","formattedAddress":"6801 Hollywood Blvd, Los Angeles, CA 90028, USA","lat":34.1025489,"lng":-118.3401051,"zipcode":"90028","city":"Los Angeles","neighborhood":"Hollywood"},{"location":"Surfside Venice","address":"23 Windward Ave Venice ","formattedAddress":"23 Windward Ave, Venice, CA 90291, USA","lat":33.9873429,"lng":-118.4733295,"zipcode":"90291","city":"Los Angeles","neighborhood":"Venice"},{"location":"The Regent Theater, DTLA","address":"448 S. Main Street Los Angeles ","formattedAddress":"448 S Main St, Los Angeles, CA 90013, USA","lat":34.046981,"lng":-118.2478,"zipcode":"90013","city":"Los Angeles","neighborhood":"Central LA"},{"location":"Forest Lawn Hall of Liberty","address":"6300 Forest Lawn Dr. Los Angeles ","formattedAddress":"6300 Forest Lawn Dr, Los Angeles, CA 90068, USA","lat":34.1498093,"lng":-118.3269101,"zipcode":"90068","city":"Los Angeles"},{"location":"Arcadia Contemporary","address":"9428 Washington Blvd. Culver City ","formattedAddress":"9428 Washington Blvd, Culver City, CA 90232, USA","lat":34.0249264,"lng":-118.3919925,"zipcode":"90232","city":"Culver City","neighborhood":"Downtown"},{"location":"Ricardo Montalban Theatre","address":"1615 Vine St Hollywood ","formattedAddress":"1615 Vine St, Los Angeles, CA 90028, USA","lat":34.1002972,"lng":-118.3271407,"zipcode":"90028","city":"Los Angeles","neighborhood":"Central LA"},{"location":"CTRL Collective (Pasadena)","address":"45 South Arroyo Parkway  ","formattedAddress":"45 S Arroyo Pkwy, Pasadena, CA 91105, USA","lat":34.1447211,"lng":-118.1478599,"zipcode":"91105","city":"Pasadena","neighborhood":"Old Pasadena"},